[{"model": "api.state", "pk": 1, "fields": {"created_at": "2020-05-07T14:44:13.007Z", "updated_at": "2020-05-07T14:44:13.007Z", "name": "Jammu And Kashmir ", "latitude": 34.29995933, "longitude": 74.46665849}}, {"model": "api.state", "pk": 2, "fields": {"created_at": "2020-05-07T14:44:13.089Z", "updated_at": "2020-05-07T14:44:13.089Z", "name": "Himachal Pradesh ", "latitude": 31.10002545, "longitude": 77.16659704}}, {"model": "api.state", "pk": 3, "fields": {"created_at": "2020-05-07T14:44:13.146Z", "updated_at": "2020-05-07T14:44:13.146Z", "name": "Punjab ", "latitude": 31.51997398, "longitude": 75.98000281}}, {"model": "api.state", "pk": 4, "fields": {"created_at": "2020-05-07T14:44:13.193Z", "updated_at": "2020-05-07T14:44:13.193Z", "name": "Chandigarh ", "latitude": 30.71999697, "longitude": 76.78000565}}, {"model": "api.state", "pk": 5, "fields": {"created_at": "2020-05-07T14:44:13.240Z", "updated_at": "2020-05-07T14:44:13.240Z", "name": "Uttarakhand ", "latitude": 30.32040895, "longitude": 78.05000565}}, {"model": "api.state", "pk": 6, "fields": {"created_at": "2020-05-07T14:44:13.281Z", "updated_at": "2020-05-07T14:44:13.281Z", "name": "Haryana ", "latitude": 28.45000633, "longitude": 77.01999101}}, {"model": "api.state", "pk": 7, "fields": {"created_at": "2020-05-07T14:44:13.313Z", "updated_at": "2020-05-07T14:44:13.313Z", "name": "Delhi ", "latitude": 28.6699929, "longitude": 77.23000403}}, {"model": "api.state", "pk": 8, "fields": {"created_at": "2020-05-07T14:44:13.378Z", "updated_at": "2020-05-07T14:44:13.378Z", "name": "Rajasthan ", "latitude": 26.44999921, "longitude": 74.63998124}}, {"model": "api.state", "pk": 9, "fields": {"created_at": "2020-05-07T14:44:13.414Z", "updated_at": "2020-05-07T14:44:13.414Z", "name": "Uttar Pradesh ", "latitude": 27.59998069, "longitude": 78.05000565}}, {"model": "api.state", "pk": 10, "fields": {"created_at": "2020-05-07T14:44:13.449Z", "updated_at": "2020-05-07T14:44:13.449Z", "name": "Bihar ", "latitude": 25.78541445, "longitude": 87.4799727}}, {"model": "api.state", "pk": 11, "fields": {"created_at": "2020-05-07T14:44:13.480Z", "updated_at": "2020-05-07T14:44:13.480Z", "name": "Goa ", "latitude": 15.491997, "longitude": 73.81800065}}, {"model": "api.state", "pk": 12, "fields": {"created_at": "2020-05-07T14:44:13.513Z", "updated_at": "2020-05-07T14:44:13.513Z", "name": "Lakshadweep ", "latitude": 10.56257331, "longitude": 72.63686717}}, {"model": "api.state", "pk": 13, "fields": {"created_at": "2020-05-07T14:44:13.547Z", "updated_at": "2020-05-07T14:44:13.547Z", "name": "Nagaland ", "latitude": 25.6669979, "longitude": 94.11657019}}, {"model": "api.state", "pk": 14, "fields": {"created_at": "2020-05-07T14:44:13.581Z", "updated_at": "2020-05-07T14:44:13.581Z", "name": "Manipur ", "latitude": 24.79997072, "longitude": 93.95001705}}, {"model": "api.state", "pk": 15, "fields": {"created_at": "2020-05-07T14:44:13.615Z", "updated_at": "2020-05-07T14:44:13.615Z", "name": "Mizoram ", "latitude": 23.71039899, "longitude": 92.72001461}}, {"model": "api.state", "pk": 16, "fields": {"created_at": "2020-05-07T14:44:13.646Z", "updated_at": "2020-05-07T14:44:13.646Z", "name": "Tripura ", "latitude": 23.83540428, "longitude": 91.27999914}}, {"model": "api.state", "pk": 17, "fields": {"created_at": "2020-05-07T14:44:13.681Z", "updated_at": "2020-05-07T14:44:13.681Z", "name": "Meghalaya ", "latitude": 25.57049217, "longitude": 91.8800142}}, {"model": "api.state", "pk": 18, "fields": {"created_at": "2020-05-07T14:44:13.715Z", "updated_at": "2020-05-07T14:44:13.715Z", "name": "Assam ", "latitude": 26.7499809, "longitude": 94.21666744}}, {"model": "api.state", "pk": 19, "fields": {"created_at": "2020-05-07T14:44:13.746Z", "updated_at": "2020-05-07T14:44:13.746Z", "name": "West Bengal ", "latitude": 22.58039044, "longitude": 88.32994665}}, {"model": "api.state", "pk": 20, "fields": {"created_at": "2020-05-07T14:44:13.780Z", "updated_at": "2020-05-07T14:44:13.780Z", "name": "Jharkhand ", "latitude": 23.80039349, "longitude": 86.41998572}}, {"model": "api.state", "pk": 21, "fields": {"created_at": "2020-05-07T14:44:13.816Z", "updated_at": "2020-05-07T14:44:13.816Z", "name": "Orissa ", "latitude": 19.82042971, "longitude": 85.90001746}}, {"model": "api.state", "pk": 22, "fields": {"created_at": "2020-05-07T14:44:13.846Z", "updated_at": "2020-05-07T14:44:13.846Z", "name": "Chhattisgarh ", "latitude": 22.09042035, "longitude": 82.15998734}}, {"model": "api.state", "pk": 23, "fields": {"created_at": "2020-05-07T14:44:13.881Z", "updated_at": "2020-05-07T14:44:13.881Z", "name": "Madhya Pradesh ", "latitude": 21.30039105, "longitude": 76.13001949}}, {"model": "api.state", "pk": 24, "fields": {"created_at": "2020-05-07T14:44:13.916Z", "updated_at": "2020-05-07T14:44:13.916Z", "name": "Gujarat ", "latitude": 23.0, "longitude": 72.0}}, {"model": "api.state", "pk": 25, "fields": {"created_at": "2020-05-07T14:44:13.950Z", "updated_at": "2020-05-07T14:44:13.950Z", "name": "Arunachal Pradesh ", "latitude": 28.1187922, "longitude": 95.7621644}}, {"model": "api.state", "pk": 26, "fields": {"created_at": "2020-05-07T14:44:13.983Z", "updated_at": "2020-05-07T14:44:13.983Z", "name": "Dadra and Nagar Haveli ", "latitude": 20.1721187, "longitude": 73.0578538}}, {"model": "api.state", "pk": 27, "fields": {"created_at": "2020-05-07T14:44:14.018Z", "updated_at": "2020-05-07T14:44:14.018Z", "name": "Maharashtra ", "latitude": 19.25023195, "longitude": 73.16017493}}, {"model": "api.state", "pk": 28, "fields": {"created_at": "2020-05-07T14:44:14.060Z", "updated_at": "2020-05-07T14:44:14.060Z", "name": "Andhra Pradesh ", "latitude": 14.7504291, "longitude": 78.57002559}}, {"model": "api.state", "pk": 29, "fields": {"created_at": "2020-05-07T14:44:14.093Z", "updated_at": "2020-05-07T14:44:14.093Z", "name": "Karnataka ", "latitude": 12.57038129, "longitude": 76.91999711}}, {"model": "api.state", "pk": 30, "fields": {"created_at": "2020-05-07T14:44:14.127Z", "updated_at": "2020-05-07T14:44:14.127Z", "name": "Sikkim ", "latitude": 27.3333303, "longitude": 88.6166475}}, {"model": "api.state", "pk": 31, "fields": {"created_at": "2020-05-07T14:44:14.161Z", "updated_at": "2020-05-07T14:44:14.161Z", "name": "Telangana ", "latitude": 19.6530647, "longitude": 78.5433701}}, {"model": "api.state", "pk": 32, "fields": {"created_at": "2020-05-07T14:44:14.208Z", "updated_at": "2020-05-07T14:44:14.208Z", "name": "Kerala ", "latitude": 8.900372741, "longitude": 76.56999263}}, {"model": "api.state", "pk": 33, "fields": {"created_at": "2020-05-07T14:44:14.248Z", "updated_at": "2020-05-07T14:44:14.248Z", "name": "Tamil Nadu ", "latitude": 12.92038576, "longitude": 79.15004187}}, {"model": "api.state", "pk": 34, "fields": {"created_at": "2020-05-07T14:44:14.283Z", "updated_at": "2020-05-07T14:44:14.283Z", "name": "Puducherry ", "latitude": 11.93499371, "longitude": 79.83000037}}, {"model": "api.state", "pk": 35, "fields": {"created_at": "2020-05-07T14:44:14.327Z", "updated_at": "2020-05-07T14:44:14.327Z", "name": "Andaman And Nicobar ", "latitude": 11.66702557, "longitude": 92.73598262}}, {"model": "api.state", "pk": 36, "fields": {"created_at": "2020-05-07T14:44:14.373Z", "updated_at": "2020-05-07T14:44:14.373Z", "name": "Ladakh ", "latitude": 34.152588, "longitude": 77.577049}}, {"model": "api.district", "pk": 1, "fields": {"created_at": "2020-05-07T14:48:45.445Z", "updated_at": "2020-05-07T14:48:45.445Z", "state": 3, "name": "Abohar ", "latitude": 30.1452928, "longitude": 74.1993043}}, {"model": "api.district", "pk": 2, "fields": {"created_at": "2020-05-07T14:48:45.528Z", "updated_at": "2020-05-07T14:48:45.528Z", "state": 27, "name": "Achalpur ", "latitude": 21.257584, "longitude": 77.5086754}}, {"model": "api.district", "pk": 3, "fields": {"created_at": "2020-05-07T14:48:45.595Z", "updated_at": "2020-05-07T14:48:45.595Z", "state": 28, "name": "Adilabad ", "latitude": 19.0809075, "longitude": 79.560344}}, {"model": "api.district", "pk": 4, "fields": {"created_at": "2020-05-07T14:48:45.728Z", "updated_at": "2020-05-07T14:48:45.728Z", "state": 20, "name": "Adityapur ", "latitude": 22.7834741, "longitude": 86.1576889}}, {"model": "api.district", "pk": 5, "fields": {"created_at": "2020-05-07T14:48:45.773Z", "updated_at": "2020-05-07T14:48:45.773Z", "state": 28, "name": "Adoni ", "latitude": 15.6322227, "longitude": 77.2728368}}, {"model": "api.district", "pk": 6, "fields": {"created_at": "2020-05-07T14:48:45.817Z", "updated_at": "2020-05-07T14:48:45.817Z", "state": 16, "name": "Agartala ", "latitude": 23.831457, "longitude": 91.2867777}}, {"model": "api.district", "pk": 7, "fields": {"created_at": "2020-05-07T14:48:45.862Z", "updated_at": "2020-05-07T14:48:45.862Z", "state": 9, "name": "Agra ", "latitude": 27.1766701, "longitude": 78.0080745}}, {"model": "api.district", "pk": 8, "fields": {"created_at": "2020-05-07T14:48:45.950Z", "updated_at": "2020-05-07T14:48:45.950Z", "state": 24, "name": "Ahmadabad ", "latitude": 23.022505, "longitude": 72.5713621}}, {"model": "api.district", "pk": 9, "fields": {"created_at": "2020-05-07T14:48:45.995Z", "updated_at": "2020-05-07T14:48:45.995Z", "state": 27, "name": "Ahmadnagar ", "latitude": 19.0952075, "longitude": 74.7495916}}, {"model": "api.district", "pk": 10, "fields": {"created_at": "2020-05-07T14:48:46.039Z", "updated_at": "2020-05-07T14:48:46.039Z", "state": 15, "name": "Aizawl ", "latitude": 23.727107, "longitude": 92.7176389}}, {"model": "api.district", "pk": 11, "fields": {"created_at": "2020-05-07T14:48:46.084Z", "updated_at": "2020-05-07T14:48:46.084Z", "state": 8, "name": "Ajmer ", "latitude": 26.4498954, "longitude": 74.6399163}}, {"model": "api.district", "pk": 12, "fields": {"created_at": "2020-05-07T14:48:46.128Z", "updated_at": "2020-05-07T14:48:46.128Z", "state": 9, "name": "Akbarpur ", "latitude": 26.4407468, "longitude": 82.5537514}}, {"model": "api.district", "pk": 13, "fields": {"created_at": "2020-05-07T14:48:46.173Z", "updated_at": "2020-05-07T14:48:46.173Z", "state": 27, "name": "Akola ", "latitude": 20.7059345, "longitude": 77.0219019}}, {"model": "api.district", "pk": 14, "fields": {"created_at": "2020-05-07T14:48:46.217Z", "updated_at": "2020-05-07T14:48:46.217Z", "state": 33, "name": "Alandur ", "latitude": 12.9974873, "longitude": 80.2006371}}, {"model": "api.district", "pk": 15, "fields": {"created_at": "2020-05-07T14:48:46.261Z", "updated_at": "2020-05-07T14:48:46.261Z", "state": 32, "name": "Alappuzha ", "latitude": 9.4980667, "longitude": 76.3388484}}, {"model": "api.district", "pk": 16, "fields": {"created_at": "2020-05-07T14:48:46.306Z", "updated_at": "2020-05-07T14:48:46.306Z", "state": 9, "name": "Aligarh ", "latitude": 27.8973944, "longitude": 78.0880129}}, {"model": "api.district", "pk": 17, "fields": {"created_at": "2020-05-07T14:48:46.350Z", "updated_at": "2020-05-07T14:48:46.350Z", "state": 9, "name": "Allahabad ", "latitude": 25.4358011, "longitude": 81.846311}}, {"model": "api.district", "pk": 18, "fields": {"created_at": "2020-05-07T14:48:46.395Z", "updated_at": "2020-05-07T14:48:46.395Z", "state": 8, "name": "Alwar ", "latitude": 27.5529907, "longitude": 76.6345735}}, {"model": "api.district", "pk": 19, "fields": {"created_at": "2020-05-07T14:48:46.439Z", "updated_at": "2020-05-07T14:48:46.439Z", "state": 6, "name": "Ambala ", "latitude": 30.3781788, "longitude": 76.7766974}}, {"model": "api.district", "pk": 20, "fields": {"created_at": "2020-05-07T14:48:46.484Z", "updated_at": "2020-05-07T14:48:46.484Z", "state": 6, "name": "Ambala Sadar ", "latitude": 30.3248708, "longitude": 76.8432663}}, {"model": "api.district", "pk": 21, "fields": {"created_at": "2020-05-07T14:48:46.528Z", "updated_at": "2020-05-07T14:48:46.528Z", "state": 27, "name": "Ambarnath ", "latitude": 19.1825167, "longitude": 73.1926023}}, {"model": "api.district", "pk": 22, "fields": {"created_at": "2020-05-07T14:48:46.573Z", "updated_at": "2020-05-07T14:48:46.573Z", "state": 33, "name": "Ambattur ", "latitude": 13.1143167, "longitude": 80.1480551}}, {"model": "api.district", "pk": 23, "fields": {"created_at": "2020-05-07T14:48:46.617Z", "updated_at": "2020-05-07T14:48:46.617Z", "state": 22, "name": "Ambikapur ", "latitude": 23.1354921, "longitude": 83.1817856}}, {"model": "api.district", "pk": 24, "fields": {"created_at": "2020-05-07T14:48:46.662Z", "updated_at": "2020-05-07T14:48:46.662Z", "state": 33, "name": "Ambur ", "latitude": 12.7903613, "longitude": 78.7166084}}, {"model": "api.district", "pk": 25, "fields": {"created_at": "2020-05-07T14:48:46.706Z", "updated_at": "2020-05-07T14:48:46.706Z", "state": 27, "name": "Amravati ", "latitude": 20.9374238, "longitude": 77.7795513}}, {"model": "api.district", "pk": 26, "fields": {"created_at": "2020-05-07T14:48:46.751Z", "updated_at": "2020-05-07T14:48:46.751Z", "state": 24, "name": "Amreli ", "latitude": 21.6031774, "longitude": 71.2220832}}, {"model": "api.district", "pk": 27, "fields": {"created_at": "2020-05-07T14:48:46.795Z", "updated_at": "2020-05-07T14:48:46.795Z", "state": 3, "name": "Amritsar ", "latitude": 31.6339793, "longitude": 74.8722642}}, {"model": "api.district", "pk": 28, "fields": {"created_at": "2020-05-07T14:48:46.830Z", "updated_at": "2020-05-07T14:48:46.830Z", "state": 9, "name": "Amroha ", "latitude": 28.9043537, "longitude": 78.4673426}}, {"model": "api.district", "pk": 29, "fields": {"created_at": "2020-05-07T14:48:46.863Z", "updated_at": "2020-05-07T14:48:46.863Z", "state": 24, "name": "Anand ", "latitude": 22.5645175, "longitude": 72.928871}}, {"model": "api.district", "pk": 30, "fields": {"created_at": "2020-05-07T14:48:46.896Z", "updated_at": "2020-05-07T14:48:46.896Z", "state": 28, "name": "Anantapur ", "latitude": 14.6818877, "longitude": 77.6005911}}, {"model": "api.district", "pk": 31, "fields": {"created_at": "2020-05-07T14:48:46.930Z", "updated_at": "2020-05-07T14:48:46.930Z", "state": 1, "name": "Anantnag ", "latitude": 33.7311255, "longitude": 75.1487007}}, {"model": "api.district", "pk": 32, "fields": {"created_at": "2020-05-07T14:48:46.996Z", "updated_at": "2020-05-07T14:48:46.996Z", "state": 10, "name": "Arrah ", "latitude": 25.5560443, "longitude": 84.6603307}}, {"model": "api.district", "pk": 33, "fields": {"created_at": "2020-05-07T14:48:47.030Z", "updated_at": "2020-05-07T14:48:47.030Z", "state": 19, "name": "Asansol ", "latitude": 23.6739452, "longitude": 86.9523954}}, {"model": "api.district", "pk": 34, "fields": {"created_at": "2020-05-07T14:48:47.063Z", "updated_at": "2020-05-07T14:48:47.063Z", "state": 19, "name": "Ashoknagar Kalyangarh ", "latitude": 22.84039, "longitude": 88.6241351}}, {"model": "api.district", "pk": 35, "fields": {"created_at": "2020-05-07T14:48:47.097Z", "updated_at": "2020-05-07T14:48:47.097Z", "state": 10, "name": "Aurangabad ", "latitude": 24.7457189, "longitude": 84.3804888}}, {"model": "api.district", "pk": 36, "fields": {"created_at": "2020-05-07T14:48:47.130Z", "updated_at": "2020-05-07T14:48:47.130Z", "state": 27, "name": "Aurangabad ", "latitude": 19.8761653, "longitude": 75.3433139}}, {"model": "api.district", "pk": 37, "fields": {"created_at": "2020-05-07T14:48:47.163Z", "updated_at": "2020-05-07T14:48:47.163Z", "state": 33, "name": "Avadi ", "latitude": 13.1067448, "longitude": 80.0969511}}, {"model": "api.district", "pk": 38, "fields": {"created_at": "2020-05-07T14:48:47.197Z", "updated_at": "2020-05-07T14:48:47.197Z", "state": 9, "name": "Azamgarh ", "latitude": 26.0737044, "longitude": 83.1859458}}, {"model": "api.district", "pk": 39, "fields": {"created_at": "2020-05-07T14:48:47.230Z", "updated_at": "2020-05-07T14:48:47.230Z", "state": 27, "name": "Badlapur ", "latitude": 19.1667854, "longitude": 73.2367896}}, {"model": "api.district", "pk": 40, "fields": {"created_at": "2020-05-07T14:48:47.263Z", "updated_at": "2020-05-07T14:48:47.263Z", "state": 10, "name": "Bagaha ", "latitude": 27.1221959, "longitude": 84.0722375}}, {"model": "api.district", "pk": 41, "fields": {"created_at": "2020-05-07T14:48:47.297Z", "updated_at": "2020-05-07T14:48:47.297Z", "state": 29, "name": "Bagalkot ", "latitude": 16.1725355, "longitude": 75.6557206}}, {"model": "api.district", "pk": 42, "fields": {"created_at": "2020-05-07T14:48:47.330Z", "updated_at": "2020-05-07T14:48:47.330Z", "state": 6, "name": "Bahadurgarh ", "latitude": 28.6924464, "longitude": 76.9239727}}, {"model": "api.district", "pk": 43, "fields": {"created_at": "2020-05-07T14:48:47.363Z", "updated_at": "2020-05-07T14:48:47.363Z", "state": 19, "name": "Baharampur ", "latitude": 24.0988265, "longitude": 88.2679264}}, {"model": "api.district", "pk": 44, "fields": {"created_at": "2020-05-07T14:48:47.397Z", "updated_at": "2020-05-07T14:48:47.397Z", "state": 9, "name": "Bahraich ", "latitude": 27.7525271, "longitude": 81.4278984}}, {"model": "api.district", "pk": 45, "fields": {"created_at": "2020-05-07T14:48:47.430Z", "updated_at": "2020-05-07T14:48:47.430Z", "state": 19, "name": "Baidyabati ", "latitude": 22.795783, "longitude": 88.3190717}}, {"model": "api.district", "pk": 46, "fields": {"created_at": "2020-05-07T14:48:47.464Z", "updated_at": "2020-05-07T14:48:47.464Z", "state": 21, "name": "Baleshwar Town ", "latitude": 21.4869337, "longitude": 86.9246005}}, {"model": "api.district", "pk": 47, "fields": {"created_at": "2020-05-07T14:48:47.497Z", "updated_at": "2020-05-07T14:48:47.497Z", "state": 9, "name": "Ballia ", "latitude": 25.7584381, "longitude": 84.1487319}}, {"model": "api.district", "pk": 48, "fields": {"created_at": "2020-05-07T14:48:47.530Z", "updated_at": "2020-05-07T14:48:47.530Z", "state": 19, "name": "Bally ", "latitude": 22.6500518, "longitude": 88.3423199}}, {"model": "api.district", "pk": 49, "fields": {"created_at": "2020-05-07T14:48:47.564Z", "updated_at": "2020-05-07T14:48:47.564Z", "state": 19, "name": "Bally City", "latitude": 22.6500518, "longitude": 88.3423199}}, {"model": "api.district", "pk": 50, "fields": {"created_at": "2020-05-07T14:48:47.597Z", "updated_at": "2020-05-07T14:48:47.597Z", "state": 19, "name": "Balurghat ", "latitude": 25.2372834, "longitude": 88.7830612}}, {"model": "api.district", "pk": 51, "fields": {"created_at": "2020-05-07T14:48:47.631Z", "updated_at": "2020-05-07T14:48:47.631Z", "state": 9, "name": "Banda ", "latitude": 25.4796224, "longitude": 80.3380213}}, {"model": "api.district", "pk": 52, "fields": {"created_at": "2020-05-07T14:48:47.664Z", "updated_at": "2020-05-07T14:48:47.664Z", "state": 19, "name": "Bankura ", "latitude": 23.2324146, "longitude": 87.0786044}}, {"model": "api.district", "pk": 53, "fields": {"created_at": "2020-05-07T14:48:47.698Z", "updated_at": "2020-05-07T14:48:47.698Z", "state": 19, "name": "Bansberia ", "latitude": 22.951904, "longitude": 88.4070629}}, {"model": "api.district", "pk": 54, "fields": {"created_at": "2020-05-07T14:48:47.731Z", "updated_at": "2020-05-07T14:48:47.731Z", "state": 8, "name": "Banswara ", "latitude": 23.5461394, "longitude": 74.4349761}}, {"model": "api.district", "pk": 55, "fields": {"created_at": "2020-05-07T14:48:47.775Z", "updated_at": "2020-05-07T14:48:47.775Z", "state": 8, "name": "Baran ", "latitude": 25.1011438, "longitude": 76.5131637}}, {"model": "api.district", "pk": 56, "fields": {"created_at": "2020-05-07T14:48:47.820Z", "updated_at": "2020-05-07T14:48:47.820Z", "state": 19, "name": "Baranagar ", "latitude": 22.6383016, "longitude": 88.3654386}}, {"model": "api.district", "pk": 57, "fields": {"created_at": "2020-05-07T14:48:47.864Z", "updated_at": "2020-05-07T14:48:47.864Z", "state": 19, "name": "Barasat ", "latitude": 22.7228159, "longitude": 88.480552}}, {"model": "api.district", "pk": 58, "fields": {"created_at": "2020-05-07T14:48:47.909Z", "updated_at": "2020-05-07T14:48:47.909Z", "state": 9, "name": "Baraut ", "latitude": 29.0998902, "longitude": 77.2606149}}, {"model": "api.district", "pk": 59, "fields": {"created_at": "2020-05-07T14:48:47.953Z", "updated_at": "2020-05-07T14:48:47.953Z", "state": 19, "name": "Barddhaman ", "latitude": 23.2324214, "longitude": 87.8614793}}, {"model": "api.district", "pk": 60, "fields": {"created_at": "2020-05-07T14:48:48.131Z", "updated_at": "2020-05-07T14:48:48.131Z", "state": 9, "name": "Bareilly ", "latitude": 28.3670355, "longitude": 79.4304381}}, {"model": "api.district", "pk": 61, "fields": {"created_at": "2020-05-07T14:48:48.219Z", "updated_at": "2020-05-07T14:48:48.219Z", "state": 21, "name": "Baripada Town ", "latitude": 21.9322338, "longitude": 86.7516942}}, {"model": "api.district", "pk": 62, "fields": {"created_at": "2020-05-07T14:48:48.264Z", "updated_at": "2020-05-07T14:48:48.264Z", "state": 3, "name": "Barnala ", "latitude": 30.3819446, "longitude": 75.5467979}}, {"model": "api.district", "pk": 63, "fields": {"created_at": "2020-05-07T14:48:48.308Z", "updated_at": "2020-05-07T14:48:48.308Z", "state": 19, "name": "Barrackpur ", "latitude": 22.7674278, "longitude": 88.3883455}}, {"model": "api.district", "pk": 64, "fields": {"created_at": "2020-05-07T14:48:48.353Z", "updated_at": "2020-05-07T14:48:48.353Z", "state": 27, "name": "Barshi ", "latitude": 18.2333856, "longitude": 75.6941478}}, {"model": "api.district", "pk": 65, "fields": {"created_at": "2020-05-07T14:48:48.397Z", "updated_at": "2020-05-07T14:48:48.397Z", "state": 19, "name": "Basirhat ", "latitude": 22.6574017, "longitude": 88.8671766}}, {"model": "api.district", "pk": 66, "fields": {"created_at": "2020-05-07T14:48:48.441Z", "updated_at": "2020-05-07T14:48:48.441Z", "state": 9, "name": "Basti ", "latitude": 26.8176796, "longitude": 82.7633133}}, {"model": "api.district", "pk": 67, "fields": {"created_at": "2020-05-07T14:48:48.486Z", "updated_at": "2020-05-07T14:48:48.486Z", "state": 3, "name": "Batala ", "latitude": 31.8183238, "longitude": 75.2070644}}, {"model": "api.district", "pk": 68, "fields": {"created_at": "2020-05-07T14:48:48.530Z", "updated_at": "2020-05-07T14:48:48.530Z", "state": 3, "name": "Bathinda ", "latitude": 30.210994, "longitude": 74.9454745}}, {"model": "api.district", "pk": 69, "fields": {"created_at": "2020-05-07T14:48:48.575Z", "updated_at": "2020-05-07T14:48:48.575Z", "state": 8, "name": "Beawar ", "latitude": 26.1007337, "longitude": 74.3190747}}, {"model": "api.district", "pk": 70, "fields": {"created_at": "2020-05-07T14:48:48.619Z", "updated_at": "2020-05-07T14:48:48.619Z", "state": 10, "name": "Begusarai ", "latitude": 25.416675, "longitude": 86.1293792}}, {"model": "api.district", "pk": 71, "fields": {"created_at": "2020-05-07T14:48:48.664Z", "updated_at": "2020-05-07T14:48:48.664Z", "state": 29, "name": "Belgaum ", "latitude": 15.8496953, "longitude": 74.4976741}}, {"model": "api.district", "pk": 72, "fields": {"created_at": "2020-05-07T14:48:48.708Z", "updated_at": "2020-05-07T14:48:48.708Z", "state": 29, "name": "Bellary ", "latitude": 15.1393932, "longitude": 76.9214428}}, {"model": "api.district", "pk": 73, "fields": {"created_at": "2020-05-07T14:48:48.753Z", "updated_at": "2020-05-07T14:48:48.753Z", "state": 29, "name": "Bengaluru", "latitude": 12.9716, "longitude": 77.5946}}, {"model": "api.district", "pk": 74, "fields": {"created_at": "2020-05-07T14:48:48.797Z", "updated_at": "2020-05-07T14:48:48.797Z", "state": 10, "name": "Bettiah ", "latitude": 26.8028048, "longitude": 84.5169757}}, {"model": "api.district", "pk": 75, "fields": {"created_at": "2020-05-07T14:48:48.841Z", "updated_at": "2020-05-07T14:48:48.841Z", "state": 23, "name": "Betul ", "latitude": 21.9108031, "longitude": 77.9011842}}, {"model": "api.district", "pk": 76, "fields": {"created_at": "2020-05-07T14:48:48.886Z", "updated_at": "2020-05-07T14:48:48.886Z", "state": 21, "name": "Bhadrak ", "latitude": 21.0582737, "longitude": 86.4958396}}, {"model": "api.district", "pk": 77, "fields": {"created_at": "2020-05-07T14:48:48.930Z", "updated_at": "2020-05-07T14:48:48.930Z", "state": 29, "name": "Bhadravati ", "latitude": 13.8329901, "longitude": 75.7080727}}, {"model": "api.district", "pk": 78, "fields": {"created_at": "2020-05-07T14:48:48.975Z", "updated_at": "2020-05-07T14:48:48.975Z", "state": 19, "name": "Bhadreswar ", "latitude": 22.8275529, "longitude": 88.3456516}}, {"model": "api.district", "pk": 79, "fields": {"created_at": "2020-05-07T14:48:49.019Z", "updated_at": "2020-05-07T14:48:49.019Z", "state": 10, "name": "Bhagalpur ", "latitude": 25.3478004, "longitude": 86.9824288}}, {"model": "api.district", "pk": 80, "fields": {"created_at": "2020-05-07T14:48:49.064Z", "updated_at": "2020-05-07T14:48:49.064Z", "state": 7, "name": "Bhalswa Jahangir Pur ", "latitude": 28.757322, "longitude": 77.1544}}, {"model": "api.district", "pk": 81, "fields": {"created_at": "2020-05-07T14:48:49.108Z", "updated_at": "2020-05-07T14:48:49.108Z", "state": 8, "name": "Bharatpur ", "latitude": 27.216981, "longitude": 77.489515}}, {"model": "api.district", "pk": 82, "fields": {"created_at": "2020-05-07T14:48:49.153Z", "updated_at": "2020-05-07T14:48:49.153Z", "state": 24, "name": "Bharuch ", "latitude": 21.7051358, "longitude": 72.9958748}}, {"model": "api.district", "pk": 83, "fields": {"created_at": "2020-05-07T14:48:49.197Z", "updated_at": "2020-05-07T14:48:49.197Z", "state": 19, "name": "Bhatpara ", "latitude": 22.8562412, "longitude": 88.406454}}, {"model": "api.district", "pk": 84, "fields": {"created_at": "2020-05-07T14:48:49.286Z", "updated_at": "2020-05-07T14:48:49.286Z", "state": 24, "name": "Bhavnagar ", "latitude": 21.7644725, "longitude": 72.1519304}}, {"model": "api.district", "pk": 85, "fields": {"created_at": "2020-05-07T14:48:49.330Z", "updated_at": "2020-05-07T14:48:49.330Z", "state": 22, "name": "Bhilai Nagar ", "latitude": 21.1938475, "longitude": 81.3509416}}, {"model": "api.district", "pk": 86, "fields": {"created_at": "2020-05-07T14:48:49.375Z", "updated_at": "2020-05-07T14:48:49.375Z", "state": 8, "name": "Bhilwara ", "latitude": 25.321377, "longitude": 74.586953}}, {"model": "api.district", "pk": 87, "fields": {"created_at": "2020-05-07T14:48:49.419Z", "updated_at": "2020-05-07T14:48:49.419Z", "state": 28, "name": "Bhimavaram ", "latitude": 16.544893, "longitude": 81.521241}}, {"model": "api.district", "pk": 88, "fields": {"created_at": "2020-05-07T14:48:49.464Z", "updated_at": "2020-05-07T14:48:49.464Z", "state": 23, "name": "Bhind ", "latitude": 26.4450034, "longitude": 78.7476208}}, {"model": "api.district", "pk": 89, "fields": {"created_at": "2020-05-07T14:48:49.508Z", "updated_at": "2020-05-07T14:48:49.508Z", "state": 8, "name": "Bhiwadi ", "latitude": 28.2088218, "longitude": 76.8445999}}, {"model": "api.district", "pk": 90, "fields": {"created_at": "2020-05-07T14:48:49.553Z", "updated_at": "2020-05-07T14:48:49.553Z", "state": 27, "name": "Bhiwandi ", "latitude": 19.2812547, "longitude": 73.0482912}}, {"model": "api.district", "pk": 91, "fields": {"created_at": "2020-05-07T14:48:49.597Z", "updated_at": "2020-05-07T14:48:49.597Z", "state": 6, "name": "Bhiwani ", "latitude": 28.7751693, "longitude": 75.9927652}}, {"model": "api.district", "pk": 92, "fields": {"created_at": "2020-05-07T14:48:49.641Z", "updated_at": "2020-05-07T14:48:49.641Z", "state": 23, "name": "Bhopal ", "latitude": 23.2599333, "longitude": 77.412615}}, {"model": "api.district", "pk": 93, "fields": {"created_at": "2020-05-07T14:48:49.686Z", "updated_at": "2020-05-07T14:48:49.686Z", "state": 21, "name": "Bhubaneswar Town ", "latitude": 20.2960587, "longitude": 85.8245398}}, {"model": "api.district", "pk": 94, "fields": {"created_at": "2020-05-07T14:48:49.730Z", "updated_at": "2020-05-07T14:48:49.730Z", "state": 24, "name": "Bhuj ", "latitude": 23.2419997, "longitude": 69.6669324}}, {"model": "api.district", "pk": 95, "fields": {"created_at": "2020-05-07T14:48:49.763Z", "updated_at": "2020-05-07T14:48:49.763Z", "state": 27, "name": "Bhusawal ", "latitude": 21.0455204, "longitude": 75.8010962}}, {"model": "api.district", "pk": 96, "fields": {"created_at": "2020-05-07T14:48:49.798Z", "updated_at": "2020-05-07T14:48:49.798Z", "state": 27, "name": "Bid ", "latitude": 18.9890893, "longitude": 75.7600785}}, {"model": "api.district", "pk": 97, "fields": {"created_at": "2020-05-07T14:48:49.832Z", "updated_at": "2020-05-07T14:48:49.832Z", "state": 29, "name": "Bidar ", "latitude": 17.9148799, "longitude": 77.5046101}}, {"model": "api.district", "pk": 98, "fields": {"created_at": "2020-05-07T14:48:49.865Z", "updated_at": "2020-05-07T14:48:49.865Z", "state": 19, "name": "Bidhan Nagar ", "latitude": 22.5867296, "longitude": 88.4170988}}, {"model": "api.district", "pk": 99, "fields": {"created_at": "2020-05-07T14:48:49.898Z", "updated_at": "2020-05-07T14:48:49.898Z", "state": 10, "name": "Biharsharif ", "latitude": 25.1982147, "longitude": 85.5148735}}, {"model": "api.district", "pk": 100, "fields": {"created_at": "2020-05-07T14:48:49.931Z", "updated_at": "2020-05-07T14:48:49.931Z", "state": 29, "name": "Bijapur ", "latitude": 16.8301708, "longitude": 75.710031}}, {"model": "api.district", "pk": 101, "fields": {"created_at": "2020-05-07T14:48:49.965Z", "updated_at": "2020-05-07T14:48:49.965Z", "state": 8, "name": "Bikaner ", "latitude": 28.0229348, "longitude": 73.3119159}}, {"model": "api.district", "pk": 102, "fields": {"created_at": "2020-05-07T14:48:49.998Z", "updated_at": "2020-05-07T14:48:49.998Z", "state": 22, "name": "Bilaspur ", "latitude": 22.0796251, "longitude": 82.1391412}}, {"model": "api.district", "pk": 103, "fields": {"created_at": "2020-05-07T14:48:50.032Z", "updated_at": "2020-05-07T14:48:50.032Z", "state": 20, "name": "Bokaro Steel City ", "latitude": 23.6692956, "longitude": 86.151112}}, {"model": "api.district", "pk": 104, "fields": {"created_at": "2020-05-07T14:48:50.065Z", "updated_at": "2020-05-07T14:48:50.065Z", "state": 19, "name": "Bongaon ", "latitude": 23.0440381, "longitude": 88.827703}}, {"model": "api.district", "pk": 105, "fields": {"created_at": "2020-05-07T14:48:50.098Z", "updated_at": "2020-05-07T14:48:50.098Z", "state": 24, "name": "Botad ", "latitude": 22.1704232, "longitude": 71.6684269}}, {"model": "api.district", "pk": 106, "fields": {"created_at": "2020-05-07T14:48:50.132Z", "updated_at": "2020-05-07T14:48:50.132Z", "state": 21, "name": "Brahmapur Town ", "latitude": 19.3149618, "longitude": 84.7940911}}, {"model": "api.district", "pk": 107, "fields": {"created_at": "2020-05-07T14:48:50.165Z", "updated_at": "2020-05-07T14:48:50.165Z", "state": 9, "name": "Budaun ", "latitude": 28.0337088, "longitude": 79.1205419}}, {"model": "api.district", "pk": 108, "fields": {"created_at": "2020-05-07T14:48:50.198Z", "updated_at": "2020-05-07T14:48:50.198Z", "state": 9, "name": "Bulandshahr ", "latitude": 28.406963, "longitude": 77.8498292}}, {"model": "api.district", "pk": 109, "fields": {"created_at": "2020-05-07T14:48:50.232Z", "updated_at": "2020-05-07T14:48:50.232Z", "state": 8, "name": "Bundi ", "latitude": 25.4305144, "longitude": 75.6499025}}, {"model": "api.district", "pk": 110, "fields": {"created_at": "2020-05-07T14:48:50.265Z", "updated_at": "2020-05-07T14:48:50.265Z", "state": 7, "name": "Burari ", "latitude": 28.7535212, "longitude": 77.1948241}}, {"model": "api.district", "pk": 111, "fields": {"created_at": "2020-05-07T14:48:50.332Z", "updated_at": "2020-05-07T14:48:50.332Z", "state": 23, "name": "Burhanpur ", "latitude": 21.3193875, "longitude": 76.2224273}}, {"model": "api.district", "pk": 112, "fields": {"created_at": "2020-05-07T14:48:50.365Z", "updated_at": "2020-05-07T14:48:50.365Z", "state": 10, "name": "Buxar ", "latitude": 25.4987785, "longitude": 84.1435136}}, {"model": "api.district", "pk": 113, "fields": {"created_at": "2020-05-07T14:48:50.399Z", "updated_at": "2020-05-07T14:48:50.399Z", "state": 19, "name": "Champdani ", "latitude": 22.8049456, "longitude": 88.3409338}}, {"model": "api.district", "pk": 114, "fields": {"created_at": "2020-05-07T14:48:50.432Z", "updated_at": "2020-05-07T14:48:50.432Z", "state": 19, "name": "Chandannagar ", "latitude": 22.8647723, "longitude": 88.36326}}, {"model": "api.district", "pk": 115, "fields": {"created_at": "2020-05-07T14:48:50.465Z", "updated_at": "2020-05-07T14:48:50.465Z", "state": 9, "name": "Chandausi ", "latitude": 28.4480507, "longitude": 78.7796105}}, {"model": "api.district", "pk": 116, "fields": {"created_at": "2020-05-07T14:48:50.499Z", "updated_at": "2020-05-07T14:48:50.499Z", "state": 4, "name": "Chandigarh ", "latitude": 30.7333148, "longitude": 76.7794179}}, {"model": "api.district", "pk": 117, "fields": {"created_at": "2020-05-07T14:48:50.532Z", "updated_at": "2020-05-07T14:48:50.532Z", "state": 27, "name": "Chandrapur ", "latitude": 19.9704597, "longitude": 79.3014845}}, {"model": "api.district", "pk": 118, "fields": {"created_at": "2020-05-07T14:48:50.577Z", "updated_at": "2020-05-07T14:48:50.577Z", "state": 10, "name": "Chapra ", "latitude": 25.7795649, "longitude": 84.7498886}}, {"model": "api.district", "pk": 119, "fields": {"created_at": "2020-05-07T14:48:50.621Z", "updated_at": "2020-05-07T14:48:50.621Z", "state": 20, "name": "Chas ", "latitude": 23.6388375, "longitude": 86.1700894}}, {"model": "api.district", "pk": 120, "fields": {"created_at": "2020-05-07T14:48:50.666Z", "updated_at": "2020-05-07T14:48:50.666Z", "state": 33, "name": "Chennai ", "latitude": 13.0826802, "longitude": 80.2707184}}, {"model": "api.district", "pk": 121, "fields": {"created_at": "2020-05-07T14:48:50.710Z", "updated_at": "2020-05-07T14:48:50.710Z", "state": 23, "name": "Chhattarpur ", "latitude": 24.728683, "longitude": 79.560344}}, {"model": "api.district", "pk": 122, "fields": {"created_at": "2020-05-07T14:48:50.754Z", "updated_at": "2020-05-07T14:48:50.754Z", "state": 23, "name": "Chhindwara ", "latitude": 22.057437, "longitude": 78.9381729}}, {"model": "api.district", "pk": 123, "fields": {"created_at": "2020-05-07T14:48:50.799Z", "updated_at": "2020-05-07T14:48:50.799Z", "state": 29, "name": "Chikmagalur ", "latitude": 13.315258, "longitude": 75.7754018}}, {"model": "api.district", "pk": 124, "fields": {"created_at": "2020-05-07T14:48:50.843Z", "updated_at": "2020-05-07T14:48:50.843Z", "state": 28, "name": "Chilakaluripet ", "latitude": 16.0924301, "longitude": 80.1623948}}, {"model": "api.district", "pk": 125, "fields": {"created_at": "2020-05-07T14:48:50.888Z", "updated_at": "2020-05-07T14:48:50.888Z", "state": 29, "name": "Chitradurga ", "latitude": 14.2305594, "longitude": 76.3984537}}, {"model": "api.district", "pk": 126, "fields": {"created_at": "2020-05-07T14:48:50.932Z", "updated_at": "2020-05-07T14:48:50.932Z", "state": 8, "name": "Chittaurgarh ", "latitude": 24.8887435, "longitude": 74.6269216}}, {"model": "api.district", "pk": 127, "fields": {"created_at": "2020-05-07T14:48:50.977Z", "updated_at": "2020-05-07T14:48:50.977Z", "state": 28, "name": "Chittoor ", "latitude": 13.2218054, "longitude": 79.1010442}}, {"model": "api.district", "pk": 128, "fields": {"created_at": "2020-05-07T14:48:51.021Z", "updated_at": "2020-05-07T14:48:51.021Z", "state": 8, "name": "Churu ", "latitude": 28.3174965, "longitude": 74.9851678}}, {"model": "api.district", "pk": 129, "fields": {"created_at": "2020-05-07T14:48:51.066Z", "updated_at": "2020-05-07T14:48:51.066Z", "state": 33, "name": "Coimbatore ", "latitude": 11.0168445, "longitude": 76.9558321}}, {"model": "api.district", "pk": 130, "fields": {"created_at": "2020-05-07T14:48:51.110Z", "updated_at": "2020-05-07T14:48:51.110Z", "state": 33, "name": "Cuddalore ", "latitude": 11.744699, "longitude": 79.7680243}}, {"model": "api.district", "pk": 131, "fields": {"created_at": "2020-05-07T14:48:51.154Z", "updated_at": "2020-05-07T14:48:51.154Z", "state": 21, "name": "Cuttack ", "latitude": 20.462521, "longitude": 85.8829895}}, {"model": "api.district", "pk": 132, "fields": {"created_at": "2020-05-07T14:48:51.199Z", "updated_at": "2020-05-07T14:48:51.199Z", "state": 19, "name": "Dabgram ", "latitude": 26.6954603, "longitude": 88.4415998}}, {"model": "api.district", "pk": 133, "fields": {"created_at": "2020-05-07T14:48:51.243Z", "updated_at": "2020-05-07T14:48:51.243Z", "state": 7, "name": "Dallo Pura ", "latitude": 28.6004677, "longitude": 77.319462}}, {"model": "api.district", "pk": 134, "fields": {"created_at": "2020-05-07T14:48:51.288Z", "updated_at": "2020-05-07T14:48:51.288Z", "state": 23, "name": "Damoh ", "latitude": 23.8380986, "longitude": 79.4421731}}, {"model": "api.district", "pk": 135, "fields": {"created_at": "2020-05-07T14:48:51.332Z", "updated_at": "2020-05-07T14:48:51.332Z", "state": 10, "name": "Darbhanga ", "latitude": 26.111868, "longitude": 85.896004}}, {"model": "api.district", "pk": 136, "fields": {"created_at": "2020-05-07T14:48:51.421Z", "updated_at": "2020-05-07T14:48:51.421Z", "state": 19, "name": "Darjiling ", "latitude": 27.0360066, "longitude": 88.2626751}}, {"model": "api.district", "pk": 137, "fields": {"created_at": "2020-05-07T14:48:51.465Z", "updated_at": "2020-05-07T14:48:51.465Z", "state": 23, "name": "Datia ", "latitude": 25.6653262, "longitude": 78.4609393}}, {"model": "api.district", "pk": 138, "fields": {"created_at": "2020-05-07T14:48:51.510Z", "updated_at": "2020-05-07T14:48:51.510Z", "state": 29, "name": "Davanagere ", "latitude": 14.4663438, "longitude": 75.9238397}}, {"model": "api.district", "pk": 139, "fields": {"created_at": "2020-05-07T14:48:51.554Z", "updated_at": "2020-05-07T14:48:51.554Z", "state": 24, "name": "Deesa ", "latitude": 24.2585031, "longitude": 72.1906721}}, {"model": "api.district", "pk": 140, "fields": {"created_at": "2020-05-07T14:48:51.599Z", "updated_at": "2020-05-07T14:48:51.599Z", "state": 5, "name": "Dehradun ", "latitude": 30.3164945, "longitude": 78.0321918}}, {"model": "api.district", "pk": 141, "fields": {"created_at": "2020-05-07T14:48:51.643Z", "updated_at": "2020-05-07T14:48:51.643Z", "state": 10, "name": "Dehri ", "latitude": 24.9277351, "longitude": 84.1909841}}, {"model": "api.district", "pk": 142, "fields": {"created_at": "2020-05-07T14:48:51.688Z", "updated_at": "2020-05-07T14:48:51.688Z", "state": 7, "name": "Delhi ", "latitude": 28.7041, "longitude": 77.1025}}, {"model": "api.district", "pk": 143, "fields": {"created_at": "2020-05-07T14:48:51.732Z", "updated_at": "2020-05-07T14:48:51.732Z", "state": 7, "name": "Delhi Cantonment ", "latitude": 28.5961279, "longitude": 77.1587375}}, {"model": "api.district", "pk": 144, "fields": {"created_at": "2020-05-07T14:48:51.777Z", "updated_at": "2020-05-07T14:48:51.777Z", "state": 20, "name": "Deoghar ", "latitude": 24.4763201, "longitude": 86.6913222}}, {"model": "api.district", "pk": 145, "fields": {"created_at": "2020-05-07T14:48:51.821Z", "updated_at": "2020-05-07T14:48:51.821Z", "state": 7, "name": "Deoli ", "latitude": 28.4962152, "longitude": 77.2376414}}, {"model": "api.district", "pk": 146, "fields": {"created_at": "2020-05-07T14:48:51.865Z", "updated_at": "2020-05-07T14:48:51.865Z", "state": 9, "name": "Deoria ", "latitude": 26.4270039, "longitude": 83.804868}}, {"model": "api.district", "pk": 147, "fields": {"created_at": "2020-05-07T14:48:51.910Z", "updated_at": "2020-05-07T14:48:51.910Z", "state": 23, "name": "Dewas ", "latitude": 22.9622672, "longitude": 76.0507949}}, {"model": "api.district", "pk": 148, "fields": {"created_at": "2020-05-07T14:48:51.954Z", "updated_at": "2020-05-07T14:48:51.954Z", "state": 20, "name": "Dhanbad ", "latitude": 23.7956531, "longitude": 86.4303859}}, {"model": "api.district", "pk": 149, "fields": {"created_at": "2020-05-07T14:48:51.999Z", "updated_at": "2020-05-07T14:48:51.999Z", "state": 28, "name": "Dharmavaram ", "latitude": 14.4137447, "longitude": 77.7126189}}, {"model": "api.district", "pk": 150, "fields": {"created_at": "2020-05-07T14:48:52.043Z", "updated_at": "2020-05-07T14:48:52.043Z", "state": 8, "name": "Dhaulpur ", "latitude": 26.7025181, "longitude": 77.893391}}, {"model": "api.district", "pk": 151, "fields": {"created_at": "2020-05-07T14:48:52.088Z", "updated_at": "2020-05-07T14:48:52.088Z", "state": 27, "name": "Dhule ", "latitude": 20.9042201, "longitude": 74.7748979}}, {"model": "api.district", "pk": 152, "fields": {"created_at": "2020-05-07T14:48:52.132Z", "updated_at": "2020-05-07T14:48:52.132Z", "state": 18, "name": "Dibrugarh ", "latitude": 27.4728327, "longitude": 94.9119621}}, {"model": "api.district", "pk": 153, "fields": {"created_at": "2020-05-07T14:48:52.176Z", "updated_at": "2020-05-07T14:48:52.176Z", "state": 13, "name": "Dimapur ", "latitude": 25.8629885, "longitude": 93.7536663}}, {"model": "api.district", "pk": 154, "fields": {"created_at": "2020-05-07T14:48:52.221Z", "updated_at": "2020-05-07T14:48:52.221Z", "state": 10, "name": "Dinapur Nizamat ", "latitude": 25.6328264, "longitude": 85.0597137}}, {"model": "api.district", "pk": 155, "fields": {"created_at": "2020-05-07T14:48:52.265Z", "updated_at": "2020-05-07T14:48:52.265Z", "state": 33, "name": "Dindigul ", "latitude": 10.3673123, "longitude": 77.9802906}}, {"model": "api.district", "pk": 156, "fields": {"created_at": "2020-05-07T14:48:52.310Z", "updated_at": "2020-05-07T14:48:52.310Z", "state": 19, "name": "Dum Dum ", "latitude": 22.6470514, "longitude": 88.431683}}, {"model": "api.district", "pk": 157, "fields": {"created_at": "2020-05-07T14:48:52.354Z", "updated_at": "2020-05-07T14:48:52.354Z", "state": 22, "name": "Durg ", "latitude": 21.1904494, "longitude": 81.2849169}}, {"model": "api.district", "pk": 158, "fields": {"created_at": "2020-05-07T14:48:52.399Z", "updated_at": "2020-05-07T14:48:52.399Z", "state": 19, "name": "Durgapur ", "latitude": 23.5204443, "longitude": 87.3119227}}, {"model": "api.district", "pk": 159, "fields": {"created_at": "2020-05-07T14:48:52.465Z", "updated_at": "2020-05-07T14:48:52.465Z", "state": 28, "name": "Eluru ", "latitude": 16.7106604, "longitude": 81.0952431}}, {"model": "api.district", "pk": 160, "fields": {"created_at": "2020-05-07T14:48:52.499Z", "updated_at": "2020-05-07T14:48:52.499Z", "state": 19, "name": "English Bazar ", "latitude": 25.0108408, "longitude": 88.1410967}}, {"model": "api.district", "pk": 161, "fields": {"created_at": "2020-05-07T14:48:52.532Z", "updated_at": "2020-05-07T14:48:52.532Z", "state": 33, "name": "Erode ", "latitude": 11.3410364, "longitude": 77.7171642}}, {"model": "api.district", "pk": 162, "fields": {"created_at": "2020-05-07T14:48:52.566Z", "updated_at": "2020-05-07T14:48:52.566Z", "state": 9, "name": "Etah ", "latitude": 27.5587505, "longitude": 78.662567}}, {"model": "api.district", "pk": 163, "fields": {"created_at": "2020-05-07T14:48:52.598Z", "updated_at": "2020-05-07T14:48:52.598Z", "state": 9, "name": "Etawah ", "latitude": 26.8458148, "longitude": 79.1096901}}, {"model": "api.district", "pk": 164, "fields": {"created_at": "2020-05-07T14:48:52.633Z", "updated_at": "2020-05-07T14:48:52.633Z", "state": 9, "name": "Faizabad ", "latitude": 26.7732476, "longitude": 82.1441643}}, {"model": "api.district", "pk": 165, "fields": {"created_at": "2020-05-07T14:48:52.667Z", "updated_at": "2020-05-07T14:48:52.667Z", "state": 6, "name": "Faridabad ", "latitude": 28.4089123, "longitude": 77.3177894}}, {"model": "api.district", "pk": 166, "fields": {"created_at": "2020-05-07T14:48:52.700Z", "updated_at": "2020-05-07T14:48:52.700Z", "state": 9, "name": "Farrukhabad-cum-Fatehgarh ", "latitude": 27.3826126, "longitude": 79.5940544}}, {"model": "api.district", "pk": 167, "fields": {"created_at": "2020-05-07T14:48:52.733Z", "updated_at": "2020-05-07T14:48:52.733Z", "state": 9, "name": "Fatehpur ", "latitude": 25.8499808, "longitude": 80.8986502}}, {"model": "api.district", "pk": 168, "fields": {"created_at": "2020-05-07T14:48:52.767Z", "updated_at": "2020-05-07T14:48:52.767Z", "state": 9, "name": "Firozabad ", "latitude": 27.1591006, "longitude": 78.3957574}}, {"model": "api.district", "pk": 169, "fields": {"created_at": "2020-05-07T14:48:52.800Z", "updated_at": "2020-05-07T14:48:52.800Z", "state": 3, "name": "Firozpur ", "latitude": 30.9331348, "longitude": 74.6224755}}, {"model": "api.district", "pk": 170, "fields": {"created_at": "2020-05-07T14:48:52.834Z", "updated_at": "2020-05-07T14:48:52.834Z", "state": 29, "name": "Gadag-Betigeri ", "latitude": 15.4324651, "longitude": 75.6380337}}, {"model": "api.district", "pk": 171, "fields": {"created_at": "2020-05-07T14:48:52.867Z", "updated_at": "2020-05-07T14:48:52.867Z", "state": 24, "name": "Gandhidham ", "latitude": 23.075297, "longitude": 70.133673}}, {"model": "api.district", "pk": 172, "fields": {"created_at": "2020-05-07T14:48:52.901Z", "updated_at": "2020-05-07T14:48:52.901Z", "state": 24, "name": "Gandhinagar ", "latitude": 23.2156354, "longitude": 72.6369415}}, {"model": "api.district", "pk": 173, "fields": {"created_at": "2020-05-07T14:48:52.934Z", "updated_at": "2020-05-07T14:48:52.934Z", "state": 8, "name": "Ganganagar ", "latitude": 29.9038399, "longitude": 73.8771901}}, {"model": "api.district", "pk": 174, "fields": {"created_at": "2020-05-07T14:48:52.967Z", "updated_at": "2020-05-07T14:48:52.967Z", "state": 8, "name": "Gangapur City ", "latitude": 26.4846537, "longitude": 76.7278803}}, {"model": "api.district", "pk": 175, "fields": {"created_at": "2020-05-07T14:48:53.000Z", "updated_at": "2020-05-07T14:48:53.000Z", "state": 29, "name": "Gangawati ", "latitude": 15.431874, "longitude": 76.5314817}}, {"model": "api.district", "pk": 176, "fields": {"created_at": "2020-05-07T14:48:53.034Z", "updated_at": "2020-05-07T14:48:53.034Z", "state": 10, "name": "Gaya ", "latitude": 24.7954523, "longitude": 84.999431}}, {"model": "api.district", "pk": 177, "fields": {"created_at": "2020-05-07T14:48:53.067Z", "updated_at": "2020-05-07T14:48:53.067Z", "state": 9, "name": "Ghazipur ", "latitude": 25.5840419, "longitude": 83.5770202}}, {"model": "api.district", "pk": 178, "fields": {"created_at": "2020-05-07T14:48:53.101Z", "updated_at": "2020-05-07T14:48:53.101Z", "state": 20, "name": "Giridih ", "latitude": 24.2841482, "longitude": 86.0937312}}, {"model": "api.district", "pk": 179, "fields": {"created_at": "2020-05-07T14:48:53.134Z", "updated_at": "2020-05-07T14:48:53.134Z", "state": 24, "name": "Godhra ", "latitude": 22.7788044, "longitude": 73.6142795}}, {"model": "api.district", "pk": 180, "fields": {"created_at": "2020-05-07T14:48:53.167Z", "updated_at": "2020-05-07T14:48:53.167Z", "state": 7, "name": "Gokal Pur ", "latitude": 28.703423, "longitude": 77.2840105}}, {"model": "api.district", "pk": 181, "fields": {"created_at": "2020-05-07T14:48:53.201Z", "updated_at": "2020-05-07T14:48:53.201Z", "state": 9, "name": "Gonda ", "latitude": 27.1339913, "longitude": 81.9618968}}, {"model": "api.district", "pk": 182, "fields": {"created_at": "2020-05-07T14:48:53.245Z", "updated_at": "2020-05-07T14:48:53.245Z", "state": 24, "name": "Gondal ", "latitude": 21.9619463, "longitude": 70.792297}}, {"model": "api.district", "pk": 183, "fields": {"created_at": "2020-05-07T14:48:53.290Z", "updated_at": "2020-05-07T14:48:53.290Z", "state": 27, "name": "Gondiya ", "latitude": 21.4624491, "longitude": 80.2209773}}, {"model": "api.district", "pk": 184, "fields": {"created_at": "2020-05-07T14:48:53.334Z", "updated_at": "2020-05-07T14:48:53.334Z", "state": 9, "name": "Gorakhpur ", "latitude": 26.7605545, "longitude": 83.3731675}}, {"model": "api.district", "pk": 185, "fields": {"created_at": "2020-05-07T14:48:53.378Z", "updated_at": "2020-05-07T14:48:53.378Z", "state": 28, "name": "Greater Hyderabad ", "latitude": 17.385, "longitude": 78.4867}}, {"model": "api.district", "pk": 186, "fields": {"created_at": "2020-05-07T14:48:53.423Z", "updated_at": "2020-05-07T14:48:53.423Z", "state": 27, "name": "Greater Mumbai ", "latitude": 19.076, "longitude": 72.8777}}, {"model": "api.district", "pk": 187, "fields": {"created_at": "2020-05-07T14:48:53.467Z", "updated_at": "2020-05-07T14:48:53.467Z", "state": 9, "name": "Greater Noida ", "latitude": 28.4743879, "longitude": 77.5039904}}, {"model": "api.district", "pk": 188, "fields": {"created_at": "2020-05-07T14:48:53.556Z", "updated_at": "2020-05-07T14:48:53.556Z", "state": 28, "name": "Gudivada ", "latitude": 16.4410255, "longitude": 80.9926327}}, {"model": "api.district", "pk": 189, "fields": {"created_at": "2020-05-07T14:48:53.601Z", "updated_at": "2020-05-07T14:48:53.601Z", "state": 29, "name": "Gulbarga ", "latitude": 17.329731, "longitude": 76.8342957}}, {"model": "api.district", "pk": 190, "fields": {"created_at": "2020-05-07T14:48:53.645Z", "updated_at": "2020-05-07T14:48:53.645Z", "state": 23, "name": "Guna ", "latitude": 24.6348197, "longitude": 77.2979782}}, {"model": "api.district", "pk": 191, "fields": {"created_at": "2020-05-07T14:48:53.690Z", "updated_at": "2020-05-07T14:48:53.690Z", "state": 28, "name": "Guntakal ", "latitude": 15.1674091, "longitude": 77.3736238}}, {"model": "api.district", "pk": 192, "fields": {"created_at": "2020-05-07T14:48:53.734Z", "updated_at": "2020-05-07T14:48:53.734Z", "state": 28, "name": "Guntur ", "latitude": 16.3066525, "longitude": 80.4365402}}, {"model": "api.district", "pk": 193, "fields": {"created_at": "2020-05-07T14:48:53.778Z", "updated_at": "2020-05-07T14:48:53.778Z", "state": 6, "name": "Gurgaon ", "latitude": 28.4594965, "longitude": 77.0266383}}, {"model": "api.district", "pk": 194, "fields": {"created_at": "2020-05-07T14:48:53.823Z", "updated_at": "2020-05-07T14:48:53.823Z", "state": 18, "name": "Guwahati ", "latitude": 26.1445169, "longitude": 91.7362365}}, {"model": "api.district", "pk": 195, "fields": {"created_at": "2020-05-07T14:48:53.867Z", "updated_at": "2020-05-07T14:48:53.867Z", "state": 23, "name": "Gwalior ", "latitude": 26.2182871, "longitude": 78.1828308}}, {"model": "api.district", "pk": 196, "fields": {"created_at": "2020-05-07T14:48:53.912Z", "updated_at": "2020-05-07T14:48:53.912Z", "state": 19, "name": "Habra ", "latitude": 22.8488542, "longitude": 88.6639591}}, {"model": "api.district", "pk": 197, "fields": {"created_at": "2020-05-07T14:48:53.956Z", "updated_at": "2020-05-07T14:48:53.956Z", "state": 10, "name": "Hajipur ", "latitude": 25.6858392, "longitude": 85.2145907}}, {"model": "api.district", "pk": 198, "fields": {"created_at": "2020-05-07T14:48:54.001Z", "updated_at": "2020-05-07T14:48:54.001Z", "state": 19, "name": "Haldia ", "latitude": 22.0666742, "longitude": 88.0698118}}, {"model": "api.district", "pk": 199, "fields": {"created_at": "2020-05-07T14:48:54.045Z", "updated_at": "2020-05-07T14:48:54.045Z", "state": 5, "name": "Haldwani-cum-Kathgodam ", "latitude": 29.2182644, "longitude": 79.5129767}}, {"model": "api.district", "pk": 200, "fields": {"created_at": "2020-05-07T14:48:54.090Z", "updated_at": "2020-05-07T14:48:54.090Z", "state": 19, "name": "Halisahar ", "latitude": 22.9441261, "longitude": 88.4193259}}, {"model": "api.district", "pk": 201, "fields": {"created_at": "2020-05-07T14:48:54.134Z", "updated_at": "2020-05-07T14:48:54.134Z", "state": 8, "name": "Hanumangarh ", "latitude": 29.5815012, "longitude": 74.3294199}}, {"model": "api.district", "pk": 202, "fields": {"created_at": "2020-05-07T14:48:54.178Z", "updated_at": "2020-05-07T14:48:54.178Z", "state": 19, "name": "Haora ", "latitude": 22.5957689, "longitude": 88.2636394}}, {"model": "api.district", "pk": 203, "fields": {"created_at": "2020-05-07T14:48:54.223Z", "updated_at": "2020-05-07T14:48:54.223Z", "state": 9, "name": "Hapur ", "latitude": 28.7305798, "longitude": 77.7758825}}, {"model": "api.district", "pk": 204, "fields": {"created_at": "2020-05-07T14:48:54.267Z", "updated_at": "2020-05-07T14:48:54.267Z", "state": 9, "name": "Hardoi ", "latitude": 27.2978965, "longitude": 80.1875065}}, {"model": "api.district", "pk": 205, "fields": {"created_at": "2020-05-07T14:48:54.312Z", "updated_at": "2020-05-07T14:48:54.312Z", "state": 5, "name": "Hardwar ", "latitude": 29.9456906, "longitude": 78.1642478}}, {"model": "api.district", "pk": 206, "fields": {"created_at": "2020-05-07T14:48:54.356Z", "updated_at": "2020-05-07T14:48:54.356Z", "state": 29, "name": "Hassan ", "latitude": 13.0068142, "longitude": 76.0995519}}, {"model": "api.district", "pk": 207, "fields": {"created_at": "2020-05-07T14:48:54.401Z", "updated_at": "2020-05-07T14:48:54.401Z", "state": 7, "name": "Hastsal ", "latitude": 28.6377129, "longitude": 77.0490264}}, {"model": "api.district", "pk": 208, "fields": {"created_at": "2020-05-07T14:48:54.445Z", "updated_at": "2020-05-07T14:48:54.445Z", "state": 9, "name": "Hathras ", "latitude": 27.6056212, "longitude": 78.0537813}}, {"model": "api.district", "pk": 209, "fields": {"created_at": "2020-05-07T14:48:54.489Z", "updated_at": "2020-05-07T14:48:54.489Z", "state": 20, "name": "Hazaribag ", "latitude": 23.9966213, "longitude": 85.3691068}}, {"model": "api.district", "pk": 210, "fields": {"created_at": "2020-05-07T14:48:54.534Z", "updated_at": "2020-05-07T14:48:54.534Z", "state": 8, "name": "Hindaun ", "latitude": 26.7454967, "longitude": 77.0330481}}, {"model": "api.district", "pk": 211, "fields": {"created_at": "2020-05-07T14:48:54.623Z", "updated_at": "2020-05-07T14:48:54.623Z", "state": 28, "name": "Hindupur ", "latitude": 13.8185378, "longitude": 77.4988753}}, {"model": "api.district", "pk": 212, "fields": {"created_at": "2020-05-07T14:48:54.667Z", "updated_at": "2020-05-07T14:48:54.667Z", "state": 27, "name": "Hinganghat ", "latitude": 20.5505728, "longitude": 78.8411405}}, {"model": "api.district", "pk": 213, "fields": {"created_at": "2020-05-07T14:48:54.712Z", "updated_at": "2020-05-07T14:48:54.712Z", "state": 6, "name": "Hisar ", "latitude": 29.1491875, "longitude": 75.7216527}}, {"model": "api.district", "pk": 214, "fields": {"created_at": "2020-05-07T14:48:54.756Z", "updated_at": "2020-05-07T14:48:54.756Z", "state": 23, "name": "Hoshangabad ", "latitude": 22.744108, "longitude": 77.736967}}, {"model": "api.district", "pk": 215, "fields": {"created_at": "2020-05-07T14:48:54.801Z", "updated_at": "2020-05-07T14:48:54.801Z", "state": 3, "name": "Hoshiarpur ", "latitude": 31.5143178, "longitude": 75.911483}}, {"model": "api.district", "pk": 216, "fields": {"created_at": "2020-05-07T14:48:54.845Z", "updated_at": "2020-05-07T14:48:54.845Z", "state": 29, "name": "Hospet ", "latitude": 15.2688542, "longitude": 76.3909241}}, {"model": "api.district", "pk": 217, "fields": {"created_at": "2020-05-07T14:48:54.889Z", "updated_at": "2020-05-07T14:48:54.889Z", "state": 33, "name": "Hosur ", "latitude": 12.7409127, "longitude": 77.8252923}}, {"model": "api.district", "pk": 218, "fields": {"created_at": "2020-05-07T14:48:54.934Z", "updated_at": "2020-05-07T14:48:54.934Z", "state": 29, "name": "Hubli-Dharwad ", "latitude": 15.3647083, "longitude": 75.1239547}}, {"model": "api.district", "pk": 219, "fields": {"created_at": "2020-05-07T14:48:54.978Z", "updated_at": "2020-05-07T14:48:54.978Z", "state": 19, "name": "Hugli-Chinsurah ", "latitude": 22.8858771, "longitude": 88.3919026}}, {"model": "api.district", "pk": 220, "fields": {"created_at": "2020-05-07T14:48:55.023Z", "updated_at": "2020-05-07T14:48:55.023Z", "state": 27, "name": "Ichalkaranji ", "latitude": 16.7090008, "longitude": 74.4560807}}, {"model": "api.district", "pk": 221, "fields": {"created_at": "2020-05-07T14:48:55.067Z", "updated_at": "2020-05-07T14:48:55.067Z", "state": 14, "name": "Imphal ", "latitude": 24.8170111, "longitude": 93.9368439}}, {"model": "api.district", "pk": 222, "fields": {"created_at": "2020-05-07T14:48:55.112Z", "updated_at": "2020-05-07T14:48:55.112Z", "state": 23, "name": "Indore ", "latitude": 22.7195687, "longitude": 75.8577258}}, {"model": "api.district", "pk": 223, "fields": {"created_at": "2020-05-07T14:48:55.156Z", "updated_at": "2020-05-07T14:48:55.156Z", "state": 23, "name": "Jabalpur ", "latitude": 23.181467, "longitude": 79.9864071}}, {"model": "api.district", "pk": 224, "fields": {"created_at": "2020-05-07T14:48:55.190Z", "updated_at": "2020-05-07T14:48:55.190Z", "state": 6, "name": "Jagadhri ", "latitude": 30.1680858, "longitude": 77.2969204}}, {"model": "api.district", "pk": 225, "fields": {"created_at": "2020-05-07T14:48:55.223Z", "updated_at": "2020-05-07T14:48:55.223Z", "state": 22, "name": "Jagdalpur ", "latitude": 19.0740973, "longitude": 82.008014}}, {"model": "api.district", "pk": 226, "fields": {"created_at": "2020-05-07T14:48:55.256Z", "updated_at": "2020-05-07T14:48:55.256Z", "state": 8, "name": "Jaipur ", "latitude": 26.9124336, "longitude": 75.7872709}}, {"model": "api.district", "pk": 227, "fields": {"created_at": "2020-05-07T14:48:55.290Z", "updated_at": "2020-05-07T14:48:55.290Z", "state": 3, "name": "Jalandhar ", "latitude": 31.3260152, "longitude": 75.5761829}}, {"model": "api.district", "pk": 228, "fields": {"created_at": "2020-05-07T14:48:55.323Z", "updated_at": "2020-05-07T14:48:55.323Z", "state": 27, "name": "Jalgaon ", "latitude": 21.0076578, "longitude": 75.5626039}}, {"model": "api.district", "pk": 229, "fields": {"created_at": "2020-05-07T14:48:55.356Z", "updated_at": "2020-05-07T14:48:55.356Z", "state": 27, "name": "Jalna ", "latitude": 19.8296893, "longitude": 75.8800305}}, {"model": "api.district", "pk": 230, "fields": {"created_at": "2020-05-07T14:48:55.390Z", "updated_at": "2020-05-07T14:48:55.390Z", "state": 19, "name": "Jalpaiguri ", "latitude": 26.5434772, "longitude": 88.7205256}}, {"model": "api.district", "pk": 231, "fields": {"created_at": "2020-05-07T14:48:55.436Z", "updated_at": "2020-05-07T14:48:55.436Z", "state": 10, "name": "Jamalpur ", "latitude": 25.312717, "longitude": 86.4906091}}, {"model": "api.district", "pk": 232, "fields": {"created_at": "2020-05-07T14:48:55.469Z", "updated_at": "2020-05-07T14:48:55.469Z", "state": 1, "name": "Jammu ", "latitude": 32.7266016, "longitude": 74.8570259}}, {"model": "api.district", "pk": 233, "fields": {"created_at": "2020-05-07T14:48:55.503Z", "updated_at": "2020-05-07T14:48:55.503Z", "state": 24, "name": "Jamnagar ", "latitude": 22.4707019, "longitude": 70.05773}}, {"model": "api.district", "pk": 234, "fields": {"created_at": "2020-05-07T14:48:55.536Z", "updated_at": "2020-05-07T14:48:55.536Z", "state": 20, "name": "Jamshedpur ", "latitude": 22.8045665, "longitude": 86.2028754}}, {"model": "api.district", "pk": 235, "fields": {"created_at": "2020-05-07T14:48:55.569Z", "updated_at": "2020-05-07T14:48:55.569Z", "state": 19, "name": "Jamuria ", "latitude": 23.7060688, "longitude": 87.0774107}}, {"model": "api.district", "pk": 236, "fields": {"created_at": "2020-05-07T14:48:55.603Z", "updated_at": "2020-05-07T14:48:55.603Z", "state": 9, "name": "Jaunpur ", "latitude": 25.7490034, "longitude": 82.6987002}}, {"model": "api.district", "pk": 237, "fields": {"created_at": "2020-05-07T14:48:55.670Z", "updated_at": "2020-05-07T14:48:55.670Z", "state": 10, "name": "Jehanabad ", "latitude": 25.1515827, "longitude": 84.981754}}, {"model": "api.district", "pk": 238, "fields": {"created_at": "2020-05-07T14:48:55.703Z", "updated_at": "2020-05-07T14:48:55.703Z", "state": 24, "name": "Jetpur Navagadh ", "latitude": 21.7615246, "longitude": 70.6276279}}, {"model": "api.district", "pk": 239, "fields": {"created_at": "2020-05-07T14:48:55.736Z", "updated_at": "2020-05-07T14:48:55.736Z", "state": 9, "name": "Jhansi ", "latitude": 25.4484257, "longitude": 78.5684594}}, {"model": "api.district", "pk": 240, "fields": {"created_at": "2020-05-07T14:48:55.858Z", "updated_at": "2020-05-07T14:48:55.858Z", "state": 8, "name": "Jhunjhunun ", "latitude": 28.1288747, "longitude": 75.3995089}}, {"model": "api.district", "pk": 241, "fields": {"created_at": "2020-05-07T14:48:55.903Z", "updated_at": "2020-05-07T14:48:55.903Z", "state": 6, "name": "Jind ", "latitude": 29.3211153, "longitude": 76.3058328}}, {"model": "api.district", "pk": 242, "fields": {"created_at": "2020-05-07T14:48:55.947Z", "updated_at": "2020-05-07T14:48:55.947Z", "state": 8, "name": "Jodhpur ", "latitude": 26.2389469, "longitude": 73.0243094}}, {"model": "api.district", "pk": 243, "fields": {"created_at": "2020-05-07T14:48:55.992Z", "updated_at": "2020-05-07T14:48:55.992Z", "state": 24, "name": "Junagadh ", "latitude": 21.522184, "longitude": 70.4578768}}, {"model": "api.district", "pk": 244, "fields": {"created_at": "2020-05-07T14:48:56.036Z", "updated_at": "2020-05-07T14:48:56.036Z", "state": 28, "name": "Kadapa ", "latitude": 14.4673541, "longitude": 78.8241339}}, {"model": "api.district", "pk": 245, "fields": {"created_at": "2020-05-07T14:48:56.081Z", "updated_at": "2020-05-07T14:48:56.081Z", "state": 6, "name": "Kaithal ", "latitude": 29.7856734, "longitude": 76.3984537}}, {"model": "api.district", "pk": 246, "fields": {"created_at": "2020-05-07T14:48:56.125Z", "updated_at": "2020-05-07T14:48:56.125Z", "state": 28, "name": "Kakinada ", "latitude": 16.9890648, "longitude": 82.2474648}}, {"model": "api.district", "pk": 247, "fields": {"created_at": "2020-05-07T14:48:56.170Z", "updated_at": "2020-05-07T14:48:56.170Z", "state": 24, "name": "Kalol ", "latitude": 23.2463895, "longitude": 72.5086513}}, {"model": "api.district", "pk": 248, "fields": {"created_at": "2020-05-07T14:48:56.214Z", "updated_at": "2020-05-07T14:48:56.214Z", "state": 19, "name": "Kalyani ", "latitude": 22.9750855, "longitude": 88.4345078}}, {"model": "api.district", "pk": 249, "fields": {"created_at": "2020-05-07T14:48:56.258Z", "updated_at": "2020-05-07T14:48:56.258Z", "state": 19, "name": "Kamarhati ", "latitude": 22.6846668, "longitude": 88.3706491}}, {"model": "api.district", "pk": 250, "fields": {"created_at": "2020-05-07T14:48:56.303Z", "updated_at": "2020-05-07T14:48:56.303Z", "state": 33, "name": "Kancheepuram ", "latitude": 12.8341735, "longitude": 79.7036402}}, {"model": "api.district", "pk": 251, "fields": {"created_at": "2020-05-07T14:48:56.347Z", "updated_at": "2020-05-07T14:48:56.347Z", "state": 19, "name": "Kanchrapara ", "latitude": 22.944101, "longitude": 88.4335019}}, {"model": "api.district", "pk": 252, "fields": {"created_at": "2020-05-07T14:48:56.392Z", "updated_at": "2020-05-07T14:48:56.392Z", "state": 9, "name": "Kanpur ", "latitude": 26.449923, "longitude": 80.3318736}}, {"model": "api.district", "pk": 253, "fields": {"created_at": "2020-05-07T14:48:56.436Z", "updated_at": "2020-05-07T14:48:56.436Z", "state": 9, "name": "Kanpur City", "latitude": 26.449923, "longitude": 80.3318736}}, {"model": "api.district", "pk": 254, "fields": {"created_at": "2020-05-07T14:48:56.481Z", "updated_at": "2020-05-07T14:48:56.481Z", "state": 33, "name": "Karaikkudi ", "latitude": 10.0731315, "longitude": 78.7801544}}, {"model": "api.district", "pk": 255, "fields": {"created_at": "2020-05-07T14:48:56.525Z", "updated_at": "2020-05-07T14:48:56.525Z", "state": 7, "name": "Karawal Nagar ", "latitude": 28.7283102, "longitude": 77.276926}}, {"model": "api.district", "pk": 256, "fields": {"created_at": "2020-05-07T14:48:56.570Z", "updated_at": "2020-05-07T14:48:56.570Z", "state": 28, "name": "Karimnagar ", "latitude": 18.4385553, "longitude": 79.1288412}}, {"model": "api.district", "pk": 257, "fields": {"created_at": "2020-05-07T14:48:56.614Z", "updated_at": "2020-05-07T14:48:56.614Z", "state": 6, "name": "Karnal ", "latitude": 29.6856929, "longitude": 76.9904825}}, {"model": "api.district", "pk": 258, "fields": {"created_at": "2020-05-07T14:48:56.659Z", "updated_at": "2020-05-07T14:48:56.659Z", "state": 9, "name": "Kasganj ", "latitude": 27.8129344, "longitude": 78.649785}}, {"model": "api.district", "pk": 259, "fields": {"created_at": "2020-05-07T14:48:56.747Z", "updated_at": "2020-05-07T14:48:56.747Z", "state": 5, "name": "Kashipur ", "latitude": 29.2104232, "longitude": 78.9618845}}, {"model": "api.district", "pk": 260, "fields": {"created_at": "2020-05-07T14:48:56.792Z", "updated_at": "2020-05-07T14:48:56.792Z", "state": 10, "name": "Katihar ", "latitude": 25.552048, "longitude": 87.5718609}}, {"model": "api.district", "pk": 261, "fields": {"created_at": "2020-05-07T14:48:56.836Z", "updated_at": "2020-05-07T14:48:56.836Z", "state": 28, "name": "Khammam ", "latitude": 17.2472528, "longitude": 80.1514447}}, {"model": "api.district", "pk": 262, "fields": {"created_at": "2020-05-07T14:48:56.881Z", "updated_at": "2020-05-07T14:48:56.881Z", "state": 23, "name": "Khandwa ", "latitude": 21.8257334, "longitude": 76.352571}}, {"model": "api.district", "pk": 263, "fields": {"created_at": "2020-05-07T14:48:56.925Z", "updated_at": "2020-05-07T14:48:56.925Z", "state": 3, "name": "Khanna ", "latitude": 30.697852, "longitude": 76.2112286}}, {"model": "api.district", "pk": 264, "fields": {"created_at": "2020-05-07T14:48:56.970Z", "updated_at": "2020-05-07T14:48:56.970Z", "state": 19, "name": "Kharagpur ", "latitude": 22.34601, "longitude": 87.2319753}}, {"model": "api.district", "pk": 265, "fields": {"created_at": "2020-05-07T14:48:57.014Z", "updated_at": "2020-05-07T14:48:57.014Z", "state": 19, "name": "Khardaha ", "latitude": 22.7002943, "longitude": 88.3753455}}, {"model": "api.district", "pk": 266, "fields": {"created_at": "2020-05-07T14:48:57.059Z", "updated_at": "2020-05-07T14:48:57.059Z", "state": 23, "name": "Khargone ", "latitude": 21.90287, "longitude": 75.8069082}}, {"model": "api.district", "pk": 267, "fields": {"created_at": "2020-05-07T14:48:57.103Z", "updated_at": "2020-05-07T14:48:57.103Z", "state": 9, "name": "Khora ", "latitude": 28.753915, "longitude": 77.3999054}}, {"model": "api.district", "pk": 268, "fields": {"created_at": "2020-05-07T14:48:57.147Z", "updated_at": "2020-05-07T14:48:57.147Z", "state": 9, "name": "Khurja ", "latitude": 28.2513538, "longitude": 77.8538797}}, {"model": "api.district", "pk": 269, "fields": {"created_at": "2020-05-07T14:48:57.192Z", "updated_at": "2020-05-07T14:48:57.192Z", "state": 7, "name": "Kirari Suleman Nagar ", "latitude": 28.6967948, "longitude": 77.0643614}}, {"model": "api.district", "pk": 270, "fields": {"created_at": "2020-05-07T14:48:57.236Z", "updated_at": "2020-05-07T14:48:57.236Z", "state": 10, "name": "Kishanganj ", "latitude": 26.0917422, "longitude": 87.9383822}}, {"model": "api.district", "pk": 271, "fields": {"created_at": "2020-05-07T14:48:57.281Z", "updated_at": "2020-05-07T14:48:57.281Z", "state": 8, "name": "Kishangarh ", "latitude": 26.5870344, "longitude": 74.856397}}, {"model": "api.district", "pk": 272, "fields": {"created_at": "2020-05-07T14:48:57.325Z", "updated_at": "2020-05-07T14:48:57.325Z", "state": 32, "name": "Kochi ", "latitude": 9.9312328, "longitude": 76.2673041}}, {"model": "api.district", "pk": 273, "fields": {"created_at": "2020-05-07T14:48:57.370Z", "updated_at": "2020-05-07T14:48:57.370Z", "state": 29, "name": "Kolar ", "latitude": 13.1357446, "longitude": 78.1325611}}, {"model": "api.district", "pk": 274, "fields": {"created_at": "2020-05-07T14:48:57.414Z", "updated_at": "2020-05-07T14:48:57.414Z", "state": 27, "name": "Kolhapur ", "latitude": 16.7049873, "longitude": 74.2432527}}, {"model": "api.district", "pk": 275, "fields": {"created_at": "2020-05-07T14:48:57.458Z", "updated_at": "2020-05-07T14:48:57.458Z", "state": 19, "name": "Kolkata ", "latitude": 22.572646, "longitude": 88.363895}}, {"model": "api.district", "pk": 276, "fields": {"created_at": "2020-05-07T14:48:57.503Z", "updated_at": "2020-05-07T14:48:57.503Z", "state": 32, "name": "Kollam ", "latitude": 8.8932118, "longitude": 76.6141396}}, {"model": "api.district", "pk": 277, "fields": {"created_at": "2020-05-07T14:48:57.547Z", "updated_at": "2020-05-07T14:48:57.547Z", "state": 22, "name": "Korba ", "latitude": 22.3594501, "longitude": 82.7500595}}, {"model": "api.district", "pk": 278, "fields": {"created_at": "2020-05-07T14:48:57.592Z", "updated_at": "2020-05-07T14:48:57.592Z", "state": 8, "name": "Kota ", "latitude": 25.2138156, "longitude": 75.8647527}}, {"model": "api.district", "pk": 279, "fields": {"created_at": "2020-05-07T14:48:57.636Z", "updated_at": "2020-05-07T14:48:57.636Z", "state": 32, "name": "Kozhikode ", "latitude": 11.2587531, "longitude": 75.78041}}, {"model": "api.district", "pk": 280, "fields": {"created_at": "2020-05-07T14:48:57.681Z", "updated_at": "2020-05-07T14:48:57.681Z", "state": 19, "name": "Krishnanagar ", "latitude": 23.4008744, "longitude": 88.5013962}}, {"model": "api.district", "pk": 281, "fields": {"created_at": "2020-05-07T14:48:57.714Z", "updated_at": "2020-05-07T14:48:57.714Z", "state": 19, "name": "Kulti ", "latitude": 23.7370306, "longitude": 86.8370937}}, {"model": "api.district", "pk": 282, "fields": {"created_at": "2020-05-07T14:48:57.781Z", "updated_at": "2020-05-07T14:48:57.781Z", "state": 33, "name": "Kumbakonam ", "latitude": 10.9616945, "longitude": 79.3881132}}, {"model": "api.district", "pk": 283, "fields": {"created_at": "2020-05-07T14:48:57.814Z", "updated_at": "2020-05-07T14:48:57.814Z", "state": 33, "name": "Kurichi ", "latitude": 11.5707716, "longitude": 77.6966143}}, {"model": "api.district", "pk": 284, "fields": {"created_at": "2020-05-07T14:48:57.847Z", "updated_at": "2020-05-07T14:48:57.847Z", "state": 28, "name": "Kurnool ", "latitude": 15.8281257, "longitude": 78.0372792}}, {"model": "api.district", "pk": 285, "fields": {"created_at": "2020-05-07T14:48:57.881Z", "updated_at": "2020-05-07T14:48:57.881Z", "state": 9, "name": "Lakhimpur ", "latitude": 27.9490794, "longitude": 80.7824012}}, {"model": "api.district", "pk": 286, "fields": {"created_at": "2020-05-07T14:48:57.914Z", "updated_at": "2020-05-07T14:48:57.914Z", "state": 9, "name": "Lalitpur ", "latitude": 24.6878597, "longitude": 78.4120206}}, {"model": "api.district", "pk": 287, "fields": {"created_at": "2020-05-07T14:48:57.948Z", "updated_at": "2020-05-07T14:48:57.948Z", "state": 27, "name": "Latur ", "latitude": 18.4087934, "longitude": 76.5603828}}, {"model": "api.district", "pk": 288, "fields": {"created_at": "2020-05-07T14:48:57.981Z", "updated_at": "2020-05-07T14:48:57.981Z", "state": 9, "name": "Loni ", "latitude": 28.7316438, "longitude": 77.3008506}}, {"model": "api.district", "pk": 289, "fields": {"created_at": "2020-05-07T14:48:58.014Z", "updated_at": "2020-05-07T14:48:58.014Z", "state": 9, "name": "Lucknow ", "latitude": 26.8466937, "longitude": 80.946166}}, {"model": "api.district", "pk": 290, "fields": {"created_at": "2020-05-07T14:48:58.047Z", "updated_at": "2020-05-07T14:48:58.047Z", "state": 3, "name": "Ludhiana ", "latitude": 30.900965, "longitude": 75.8572758}}, {"model": "api.district", "pk": 291, "fields": {"created_at": "2020-05-07T14:48:58.081Z", "updated_at": "2020-05-07T14:48:58.081Z", "state": 28, "name": "Machilipatnam ", "latitude": 16.1905457, "longitude": 81.1361543}}, {"model": "api.district", "pk": 292, "fields": {"created_at": "2020-05-07T14:48:58.114Z", "updated_at": "2020-05-07T14:48:58.114Z", "state": 28, "name": "Madanapalle ", "latitude": 13.5603491, "longitude": 78.5036065}}, {"model": "api.district", "pk": 293, "fields": {"created_at": "2020-05-07T14:48:58.148Z", "updated_at": "2020-05-07T14:48:58.148Z", "state": 33, "name": "Madavaram ", "latitude": 13.147819, "longitude": 80.2309861}}, {"model": "api.district", "pk": 294, "fields": {"created_at": "2020-05-07T14:48:58.182Z", "updated_at": "2020-05-07T14:48:58.182Z", "state": 19, "name": "Madhyamgram ", "latitude": 22.6925015, "longitude": 88.465448}}, {"model": "api.district", "pk": 295, "fields": {"created_at": "2020-05-07T14:48:58.216Z", "updated_at": "2020-05-07T14:48:58.216Z", "state": 33, "name": "Madurai ", "latitude": 9.9252007, "longitude": 78.1197754}}, {"model": "api.district", "pk": 296, "fields": {"created_at": "2020-05-07T14:48:58.249Z", "updated_at": "2020-05-07T14:48:58.249Z", "state": 28, "name": "Mahbubnagar ", "latitude": 16.7375089, "longitude": 78.0081221}}, {"model": "api.district", "pk": 297, "fields": {"created_at": "2020-05-07T14:48:58.282Z", "updated_at": "2020-05-07T14:48:58.282Z", "state": 24, "name": "Mahesana ", "latitude": 23.5879607, "longitude": 72.3693252}}, {"model": "api.district", "pk": 298, "fields": {"created_at": "2020-05-07T14:48:58.316Z", "updated_at": "2020-05-07T14:48:58.316Z", "state": 19, "name": "Maheshtala ", "latitude": 22.511976, "longitude": 88.2509941}}, {"model": "api.district", "pk": 299, "fields": {"created_at": "2020-05-07T14:48:58.349Z", "updated_at": "2020-05-07T14:48:58.349Z", "state": 9, "name": "Mainpuri ", "latitude": 27.2177405, "longitude": 79.1096901}}, {"model": "api.district", "pk": 300, "fields": {"created_at": "2020-05-07T14:48:58.383Z", "updated_at": "2020-05-07T14:48:58.383Z", "state": 27, "name": "Malegaon ", "latitude": 20.5547497, "longitude": 74.5100291}}, {"model": "api.district", "pk": 301, "fields": {"created_at": "2020-05-07T14:48:58.416Z", "updated_at": "2020-05-07T14:48:58.416Z", "state": 3, "name": "Malerkotla ", "latitude": 30.5232076, "longitude": 75.8882508}}, {"model": "api.district", "pk": 302, "fields": {"created_at": "2020-05-07T14:48:58.449Z", "updated_at": "2020-05-07T14:48:58.449Z", "state": 7, "name": "Mandoli ", "latitude": 28.7041396, "longitude": 77.313921}}, {"model": "api.district", "pk": 303, "fields": {"created_at": "2020-05-07T14:48:58.494Z", "updated_at": "2020-05-07T14:48:58.494Z", "state": 23, "name": "Mandsaur ", "latitude": 24.076836, "longitude": 75.0692952}}, {"model": "api.district", "pk": 304, "fields": {"created_at": "2020-05-07T14:48:58.538Z", "updated_at": "2020-05-07T14:48:58.538Z", "state": 29, "name": "Mandya ", "latitude": 12.5221567, "longitude": 76.9009191}}, {"model": "api.district", "pk": 305, "fields": {"created_at": "2020-05-07T14:48:58.583Z", "updated_at": "2020-05-07T14:48:58.583Z", "state": 29, "name": "Mangalore ", "latitude": 12.9141417, "longitude": 74.8559568}}, {"model": "api.district", "pk": 306, "fields": {"created_at": "2020-05-07T14:48:58.627Z", "updated_at": "2020-05-07T14:48:58.627Z", "state": 20, "name": "Mango ", "latitude": 22.834024, "longitude": 86.219577}}, {"model": "api.district", "pk": 307, "fields": {"created_at": "2020-05-07T14:48:58.672Z", "updated_at": "2020-05-07T14:48:58.672Z", "state": 9, "name": "Mathura ", "latitude": 27.4924134, "longitude": 77.673673}}, {"model": "api.district", "pk": 308, "fields": {"created_at": "2020-05-07T14:48:58.716Z", "updated_at": "2020-05-07T14:48:58.716Z", "state": 9, "name": "Maunath Bhanjan ", "latitude": 25.9496379, "longitude": 83.5586445}}, {"model": "api.district", "pk": 309, "fields": {"created_at": "2020-05-07T14:48:58.761Z", "updated_at": "2020-05-07T14:48:58.761Z", "state": 19, "name": "Medinipur ", "latitude": 22.4308892, "longitude": 87.3214908}}, {"model": "api.district", "pk": 310, "fields": {"created_at": "2020-05-07T14:48:58.849Z", "updated_at": "2020-05-07T14:48:58.849Z", "state": 9, "name": "Meerut ", "latitude": 28.9844618, "longitude": 77.7064137}}, {"model": "api.district", "pk": 311, "fields": {"created_at": "2020-05-07T14:48:58.894Z", "updated_at": "2020-05-07T14:48:58.894Z", "state": 27, "name": "Mira Bhayander ", "latitude": 19.2952325, "longitude": 72.8543897}}, {"model": "api.district", "pk": 312, "fields": {"created_at": "2020-05-07T14:48:58.938Z", "updated_at": "2020-05-07T14:48:58.938Z", "state": 28, "name": "Miryalaguda ", "latitude": 16.8753106, "longitude": 79.5659633}}, {"model": "api.district", "pk": 313, "fields": {"created_at": "2020-05-07T14:48:58.982Z", "updated_at": "2020-05-07T14:48:58.982Z", "state": 9, "name": "Mirzapur-cum-Vindhyachal ", "latitude": 25.1336987, "longitude": 82.5644344}}, {"model": "api.district", "pk": 314, "fields": {"created_at": "2020-05-07T14:48:59.027Z", "updated_at": "2020-05-07T14:48:59.027Z", "state": 9, "name": "Modinagar ", "latitude": 28.8316307, "longitude": 77.5779592}}, {"model": "api.district", "pk": 315, "fields": {"created_at": "2020-05-07T14:48:59.072Z", "updated_at": "2020-05-07T14:48:59.072Z", "state": 3, "name": "Moga ", "latitude": 30.8164603, "longitude": 75.1717093}}, {"model": "api.district", "pk": 316, "fields": {"created_at": "2020-05-07T14:48:59.116Z", "updated_at": "2020-05-07T14:48:59.116Z", "state": 9, "name": "Moradabad ", "latitude": 28.8386481, "longitude": 78.7733286}}, {"model": "api.district", "pk": 317, "fields": {"created_at": "2020-05-07T14:48:59.160Z", "updated_at": "2020-05-07T14:48:59.160Z", "state": 23, "name": "Morena ", "latitude": 26.4933562, "longitude": 77.9909949}}, {"model": "api.district", "pk": 318, "fields": {"created_at": "2020-05-07T14:48:59.205Z", "updated_at": "2020-05-07T14:48:59.205Z", "state": 24, "name": "Morvi ", "latitude": 22.8119895, "longitude": 70.8236195}}, {"model": "api.district", "pk": 319, "fields": {"created_at": "2020-05-07T14:48:59.249Z", "updated_at": "2020-05-07T14:48:59.249Z", "state": 10, "name": "Motihari ", "latitude": 26.6469624, "longitude": 84.9088938}}, {"model": "api.district", "pk": 320, "fields": {"created_at": "2020-05-07T14:48:59.294Z", "updated_at": "2020-05-07T14:48:59.294Z", "state": 9, "name": "Mughalsarai ", "latitude": 25.2814947, "longitude": 83.1198203}}, {"model": "api.district", "pk": 321, "fields": {"created_at": "2020-05-07T14:48:59.338Z", "updated_at": "2020-05-07T14:48:59.338Z", "state": 3, "name": "Muktsar ", "latitude": 30.4766391, "longitude": 74.511172}}, {"model": "api.district", "pk": 322, "fields": {"created_at": "2020-05-07T14:48:59.382Z", "updated_at": "2020-05-07T14:48:59.382Z", "state": 10, "name": "Munger ", "latitude": 25.3747561, "longitude": 86.4735251}}, {"model": "api.district", "pk": 323, "fields": {"created_at": "2020-05-07T14:48:59.427Z", "updated_at": "2020-05-07T14:48:59.427Z", "state": 23, "name": "Murwara ", "latitude": 23.7473807, "longitude": 80.365865}}, {"model": "api.district", "pk": 324, "fields": {"created_at": "2020-05-07T14:48:59.471Z", "updated_at": "2020-05-07T14:48:59.471Z", "state": 7, "name": "Mustafabad ", "latitude": 28.7113968, "longitude": 77.2681086}}, {"model": "api.district", "pk": 325, "fields": {"created_at": "2020-05-07T14:48:59.516Z", "updated_at": "2020-05-07T14:48:59.516Z", "state": 9, "name": "Muzaffarnagar ", "latitude": 29.4726817, "longitude": 77.7085091}}, {"model": "api.district", "pk": 326, "fields": {"created_at": "2020-05-07T14:48:59.560Z", "updated_at": "2020-05-07T14:48:59.560Z", "state": 10, "name": "Muzaffarpur ", "latitude": 26.1208876, "longitude": 85.3647201}}, {"model": "api.district", "pk": 327, "fields": {"created_at": "2020-05-07T14:48:59.605Z", "updated_at": "2020-05-07T14:48:59.605Z", "state": 29, "name": "Mysore ", "latitude": 12.2958104, "longitude": 76.6393805}}, {"model": "api.district", "pk": 328, "fields": {"created_at": "2020-05-07T14:48:59.671Z", "updated_at": "2020-05-07T14:48:59.671Z", "state": 19, "name": "Nabadwip ", "latitude": 23.4036446, "longitude": 88.3676393}}, {"model": "api.district", "pk": 329, "fields": {"created_at": "2020-05-07T14:48:59.716Z", "updated_at": "2020-05-07T14:48:59.716Z", "state": 24, "name": "Nadiad ", "latitude": 22.6915853, "longitude": 72.8633635}}, {"model": "api.district", "pk": 330, "fields": {"created_at": "2020-05-07T14:48:59.760Z", "updated_at": "2020-05-07T14:48:59.760Z", "state": 18, "name": "Nagaon ", "latitude": 26.3463713, "longitude": 92.6840426}}, {"model": "api.district", "pk": 331, "fields": {"created_at": "2020-05-07T14:48:59.805Z", "updated_at": "2020-05-07T14:48:59.805Z", "state": 33, "name": "Nagapattinam ", "latitude": 10.7656082, "longitude": 79.8423888}}, {"model": "api.district", "pk": 332, "fields": {"created_at": "2020-05-07T14:48:59.894Z", "updated_at": "2020-05-07T14:48:59.894Z", "state": 8, "name": "Nagaur ", "latitude": 27.1991222, "longitude": 73.740924}}, {"model": "api.district", "pk": 333, "fields": {"created_at": "2020-05-07T14:48:59.938Z", "updated_at": "2020-05-07T14:48:59.938Z", "state": 23, "name": "Nagda ", "latitude": 23.4454599, "longitude": 75.4169918}}, {"model": "api.district", "pk": 334, "fields": {"created_at": "2020-05-07T14:48:59.983Z", "updated_at": "2020-05-07T14:48:59.983Z", "state": 33, "name": "Nagercoil ", "latitude": 8.1832857, "longitude": 77.4118996}}, {"model": "api.district", "pk": 335, "fields": {"created_at": "2020-05-07T14:49:00.027Z", "updated_at": "2020-05-07T14:49:00.027Z", "state": 27, "name": "Nagpur ", "latitude": 21.1458004, "longitude": 79.0881546}}, {"model": "api.district", "pk": 336, "fields": {"created_at": "2020-05-07T14:49:00.072Z", "updated_at": "2020-05-07T14:49:00.072Z", "state": 19, "name": "Naihati ", "latitude": 22.8928724, "longitude": 88.4220324}}, {"model": "api.district", "pk": 337, "fields": {"created_at": "2020-05-07T14:49:00.116Z", "updated_at": "2020-05-07T14:49:00.116Z", "state": 28, "name": "Nalgonda ", "latitude": 17.0575707, "longitude": 79.2620294}}, {"model": "api.district", "pk": 338, "fields": {"created_at": "2020-05-07T14:49:00.160Z", "updated_at": "2020-05-07T14:49:00.160Z", "state": 27, "name": "Nanded Waghala ", "latitude": 19.1428869, "longitude": 77.303723}}, {"model": "api.district", "pk": 339, "fields": {"created_at": "2020-05-07T14:49:00.205Z", "updated_at": "2020-05-07T14:49:00.205Z", "state": 27, "name": "Nandurbar ", "latitude": 21.7468548, "longitude": 74.123996}}, {"model": "api.district", "pk": 340, "fields": {"created_at": "2020-05-07T14:49:00.249Z", "updated_at": "2020-05-07T14:49:00.249Z", "state": 28, "name": "Nandyal ", "latitude": 15.4785694, "longitude": 78.4830934}}, {"model": "api.district", "pk": 341, "fields": {"created_at": "2020-05-07T14:49:00.283Z", "updated_at": "2020-05-07T14:49:00.283Z", "state": 7, "name": "Nangloi Jat ", "latitude": 28.6841206, "longitude": 77.0632942}}, {"model": "api.district", "pk": 342, "fields": {"created_at": "2020-05-07T14:49:00.316Z", "updated_at": "2020-05-07T14:49:00.316Z", "state": 28, "name": "Narasaraopet ", "latitude": 16.2353506, "longitude": 80.0479039}}, {"model": "api.district", "pk": 343, "fields": {"created_at": "2020-05-07T14:49:00.349Z", "updated_at": "2020-05-07T14:49:00.349Z", "state": 27, "name": "Nashik ", "latitude": 19.9974533, "longitude": 73.7898023}}, {"model": "api.district", "pk": 344, "fields": {"created_at": "2020-05-07T14:49:00.383Z", "updated_at": "2020-05-07T14:49:00.383Z", "state": 27, "name": "Navi Mumbai ", "latitude": 19.0330488, "longitude": 73.0296625}}, {"model": "api.district", "pk": 345, "fields": {"created_at": "2020-05-07T14:49:00.416Z", "updated_at": "2020-05-07T14:49:00.416Z", "state": 27, "name": "Navi Mumbai Panvel Raigarh ", "latitude": 18.9894007, "longitude": 73.1175162}}, {"model": "api.district", "pk": 346, "fields": {"created_at": "2020-05-07T14:49:00.449Z", "updated_at": "2020-05-07T14:49:00.449Z", "state": 24, "name": "Navsari ", "latitude": 20.9467019, "longitude": 72.9520348}}, {"model": "api.district", "pk": 347, "fields": {"created_at": "2020-05-07T14:49:00.483Z", "updated_at": "2020-05-07T14:49:00.483Z", "state": 23, "name": "Neemuch ", "latitude": 24.4763852, "longitude": 74.8624092}}, {"model": "api.district", "pk": 348, "fields": {"created_at": "2020-05-07T14:49:00.516Z", "updated_at": "2020-05-07T14:49:00.516Z", "state": 28, "name": "Nellore ", "latitude": 14.4425987, "longitude": 79.986456}}, {"model": "api.district", "pk": 349, "fields": {"created_at": "2020-05-07T14:49:00.550Z", "updated_at": "2020-05-07T14:49:00.550Z", "state": 7, "name": "New Delhi ", "latitude": 28.6139, "longitude": 77.209}}, {"model": "api.district", "pk": 350, "fields": {"created_at": "2020-05-07T14:49:00.583Z", "updated_at": "2020-05-07T14:49:00.583Z", "state": 33, "name": "Neyveli ", "latitude": 11.5432364, "longitude": 79.4760133}}, {"model": "api.district", "pk": 351, "fields": {"created_at": "2020-05-07T14:49:00.616Z", "updated_at": "2020-05-07T14:49:00.616Z", "state": 28, "name": "Nizamabad ", "latitude": 18.6725047, "longitude": 78.0940867}}, {"model": "api.district", "pk": 352, "fields": {"created_at": "2020-05-07T14:49:00.650Z", "updated_at": "2020-05-07T14:49:00.650Z", "state": 9, "name": "Noida ", "latitude": 28.5355161, "longitude": 77.3910265}}, {"model": "api.district", "pk": 353, "fields": {"created_at": "2020-05-07T14:49:00.683Z", "updated_at": "2020-05-07T14:49:00.683Z", "state": 19, "name": "North Barrackpur ", "latitude": 22.7902358, "longitude": 88.367179}}, {"model": "api.district", "pk": 354, "fields": {"created_at": "2020-05-07T14:49:00.716Z", "updated_at": "2020-05-07T14:49:00.716Z", "state": 19, "name": "North Dum Dum ", "latitude": 22.6658076, "longitude": 88.4258483}}, {"model": "api.district", "pk": 355, "fields": {"created_at": "2020-05-07T14:49:00.750Z", "updated_at": "2020-05-07T14:49:00.750Z", "state": 28, "name": "Ongole ", "latitude": 15.5057232, "longitude": 80.049922}}, {"model": "api.district", "pk": 356, "fields": {"created_at": "2020-05-07T14:49:00.783Z", "updated_at": "2020-05-07T14:49:00.783Z", "state": 9, "name": "Orai ", "latitude": 26.00864, "longitude": 79.4478858}}, {"model": "api.district", "pk": 357, "fields": {"created_at": "2020-05-07T14:49:00.816Z", "updated_at": "2020-05-07T14:49:00.816Z", "state": 27, "name": "Osmanabad ", "latitude": 18.2069636, "longitude": 76.1783739}}, {"model": "api.district", "pk": 358, "fields": {"created_at": "2020-05-07T14:49:01.003Z", "updated_at": "2020-05-07T14:49:01.003Z", "state": 34, "name": "Ozhukarai ", "latitude": 11.9475611, "longitude": 79.7793932}}, {"model": "api.district", "pk": 359, "fields": {"created_at": "2020-05-07T14:49:01.073Z", "updated_at": "2020-05-07T14:49:01.073Z", "state": 32, "name": "Palakkad ", "latitude": 10.7867303, "longitude": 76.6547932}}, {"model": "api.district", "pk": 360, "fields": {"created_at": "2020-05-07T14:49:01.107Z", "updated_at": "2020-05-07T14:49:01.107Z", "state": 24, "name": "Palanpur ", "latitude": 24.174051, "longitude": 72.4330989}}, {"model": "api.district", "pk": 361, "fields": {"created_at": "2020-05-07T14:49:01.140Z", "updated_at": "2020-05-07T14:49:01.140Z", "state": 8, "name": "Pali ", "latitude": 25.7710893, "longitude": 73.3234478}}, {"model": "api.district", "pk": 362, "fields": {"created_at": "2020-05-07T14:49:01.185Z", "updated_at": "2020-05-07T14:49:01.185Z", "state": 33, "name": "Pallavaram ", "latitude": 12.9673484, "longitude": 80.1526888}}, {"model": "api.district", "pk": 363, "fields": {"created_at": "2020-05-07T14:49:01.273Z", "updated_at": "2020-05-07T14:49:01.273Z", "state": 6, "name": "Palwal ", "latitude": 28.1487362, "longitude": 77.3320262}}, {"model": "api.district", "pk": 364, "fields": {"created_at": "2020-05-07T14:49:01.318Z", "updated_at": "2020-05-07T14:49:01.318Z", "state": 6, "name": "Panchkula ", "latitude": 30.6942091, "longitude": 76.860565}}, {"model": "api.district", "pk": 365, "fields": {"created_at": "2020-05-07T14:49:01.362Z", "updated_at": "2020-05-07T14:49:01.362Z", "state": 19, "name": "Panihati ", "latitude": 22.6983108, "longitude": 88.3991789}}, {"model": "api.district", "pk": 366, "fields": {"created_at": "2020-05-07T14:49:01.407Z", "updated_at": "2020-05-07T14:49:01.407Z", "state": 6, "name": "Panipat ", "latitude": 29.3909464, "longitude": 76.9635023}}, {"model": "api.district", "pk": 367, "fields": {"created_at": "2020-05-07T14:49:01.451Z", "updated_at": "2020-05-07T14:49:01.451Z", "state": 27, "name": "Panvel ", "latitude": 18.9894007, "longitude": 73.1175162}}, {"model": "api.district", "pk": 368, "fields": {"created_at": "2020-05-07T14:49:01.566Z", "updated_at": "2020-05-07T14:49:01.566Z", "state": 27, "name": "Parbhani ", "latitude": 19.2609958, "longitude": 76.776665}}, {"model": "api.district", "pk": 369, "fields": {"created_at": "2020-05-07T14:49:01.640Z", "updated_at": "2020-05-07T14:49:01.640Z", "state": 24, "name": "Patan ", "latitude": 23.8493246, "longitude": 72.1266255}}, {"model": "api.district", "pk": 370, "fields": {"created_at": "2020-05-07T14:49:01.684Z", "updated_at": "2020-05-07T14:49:01.684Z", "state": 3, "name": "Pathankot ", "latitude": 32.2643375, "longitude": 75.6421121}}, {"model": "api.district", "pk": 371, "fields": {"created_at": "2020-05-07T14:49:01.729Z", "updated_at": "2020-05-07T14:49:01.729Z", "state": 3, "name": "Patiala ", "latitude": 30.3397809, "longitude": 76.3868797}}, {"model": "api.district", "pk": 372, "fields": {"created_at": "2020-05-07T14:49:01.773Z", "updated_at": "2020-05-07T14:49:01.773Z", "state": 10, "name": "Patna ", "latitude": 25.5940947, "longitude": 85.1375645}}, {"model": "api.district", "pk": 373, "fields": {"created_at": "2020-05-07T14:49:01.818Z", "updated_at": "2020-05-07T14:49:01.818Z", "state": 9, "name": "Pilibhit ", "latitude": 28.6207939, "longitude": 79.8128649}}, {"model": "api.district", "pk": 374, "fields": {"created_at": "2020-05-07T14:49:01.862Z", "updated_at": "2020-05-07T14:49:01.862Z", "state": 27, "name": "Pimpri Chinchwad ", "latitude": 18.6297811, "longitude": 73.7997094}}, {"model": "api.district", "pk": 375, "fields": {"created_at": "2020-05-07T14:49:01.918Z", "updated_at": "2020-05-07T14:49:01.918Z", "state": 23, "name": "Pithampur ", "latitude": 22.613252, "longitude": 75.6822899}}, {"model": "api.district", "pk": 376, "fields": {"created_at": "2020-05-07T14:49:02.095Z", "updated_at": "2020-05-07T14:49:02.095Z", "state": 24, "name": "Porbandar ", "latitude": 21.6417069, "longitude": 69.6292654}}, {"model": "api.district", "pk": 377, "fields": {"created_at": "2020-05-07T14:49:02.140Z", "updated_at": "2020-05-07T14:49:02.140Z", "state": 35, "name": "Port Blair ", "latitude": 11.6233774, "longitude": 92.7264828}}, {"model": "api.district", "pk": 378, "fields": {"created_at": "2020-05-07T14:49:02.184Z", "updated_at": "2020-05-07T14:49:02.184Z", "state": 28, "name": "Proddatur ", "latitude": 14.7491864, "longitude": 78.5531577}}, {"model": "api.district", "pk": 379, "fields": {"created_at": "2020-05-07T14:49:02.229Z", "updated_at": "2020-05-07T14:49:02.229Z", "state": 34, "name": "Puducherry ", "latitude": 11.9138598, "longitude": 79.8144722}}, {"model": "api.district", "pk": 380, "fields": {"created_at": "2020-05-07T14:49:02.273Z", "updated_at": "2020-05-07T14:49:02.273Z", "state": 33, "name": "Pudukkottai ", "latitude": 10.379663, "longitude": 78.8208454}}, {"model": "api.district", "pk": 381, "fields": {"created_at": "2020-05-07T14:49:02.317Z", "updated_at": "2020-05-07T14:49:02.317Z", "state": 27, "name": "Pune ", "latitude": 18.5204303, "longitude": 73.8567437}}, {"model": "api.district", "pk": 382, "fields": {"created_at": "2020-05-07T14:49:02.362Z", "updated_at": "2020-05-07T14:49:02.362Z", "state": 21, "name": "Puri ", "latitude": 19.8133822, "longitude": 85.8314655}}, {"model": "api.district", "pk": 383, "fields": {"created_at": "2020-05-07T14:49:02.406Z", "updated_at": "2020-05-07T14:49:02.406Z", "state": 10, "name": "Purnia ", "latitude": 25.7771391, "longitude": 87.4752551}}, {"model": "api.district", "pk": 384, "fields": {"created_at": "2020-05-07T14:49:02.451Z", "updated_at": "2020-05-07T14:49:02.451Z", "state": 19, "name": "Puruliya ", "latitude": 23.3320779, "longitude": 86.365208}}, {"model": "api.district", "pk": 385, "fields": {"created_at": "2020-05-07T14:49:02.495Z", "updated_at": "2020-05-07T14:49:02.495Z", "state": 9, "name": "Rae Bareli ", "latitude": 26.2345298, "longitude": 81.2408689}}, {"model": "api.district", "pk": 386, "fields": {"created_at": "2020-05-07T14:49:02.550Z", "updated_at": "2020-05-07T14:49:02.550Z", "state": 29, "name": "Raichur ", "latitude": 16.2120031, "longitude": 77.3439283}}, {"model": "api.district", "pk": 387, "fields": {"created_at": "2020-05-07T14:49:02.662Z", "updated_at": "2020-05-07T14:49:02.662Z", "state": 19, "name": "Raiganj ", "latitude": 25.6185295, "longitude": 88.1255837}}, {"model": "api.district", "pk": 388, "fields": {"created_at": "2020-05-07T14:49:02.728Z", "updated_at": "2020-05-07T14:49:02.728Z", "state": 22, "name": "Raigarh ", "latitude": 21.8974003, "longitude": 83.3949632}}, {"model": "api.district", "pk": 389, "fields": {"created_at": "2020-05-07T14:49:02.773Z", "updated_at": "2020-05-07T14:49:02.773Z", "state": 22, "name": "Raipur ", "latitude": 21.2513844, "longitude": 81.6296413}}, {"model": "api.district", "pk": 390, "fields": {"created_at": "2020-05-07T14:49:02.817Z", "updated_at": "2020-05-07T14:49:02.817Z", "state": 28, "name": "Rajahmundry ", "latitude": 17.0005383, "longitude": 81.8040345}}, {"model": "api.district", "pk": 391, "fields": {"created_at": "2020-05-07T14:49:02.862Z", "updated_at": "2020-05-07T14:49:02.862Z", "state": 33, "name": "Rajapalayam ", "latitude": 9.4653377, "longitude": 77.5275463}}, {"model": "api.district", "pk": 392, "fields": {"created_at": "2020-05-07T14:49:02.906Z", "updated_at": "2020-05-07T14:49:02.906Z", "state": 19, "name": "Rajarhat Gopalpur ", "latitude": 22.6321975, "longitude": 88.4540911}}, {"model": "api.district", "pk": 393, "fields": {"created_at": "2020-05-07T14:49:02.951Z", "updated_at": "2020-05-07T14:49:02.951Z", "state": 24, "name": "Rajkot ", "latitude": 22.3038945, "longitude": 70.8021599}}, {"model": "api.district", "pk": 394, "fields": {"created_at": "2020-05-07T14:49:02.995Z", "updated_at": "2020-05-07T14:49:02.995Z", "state": 22, "name": "Rajnandgaon ", "latitude": 21.0971034, "longitude": 81.0302222}}, {"model": "api.district", "pk": 395, "fields": {"created_at": "2020-05-07T14:49:03.051Z", "updated_at": "2020-05-07T14:49:03.051Z", "state": 19, "name": "Rajpur Sonarpur ", "latitude": 22.4490894, "longitude": 88.3914731}}, {"model": "api.district", "pk": 396, "fields": {"created_at": "2020-05-07T14:49:03.162Z", "updated_at": "2020-05-07T14:49:03.162Z", "state": 28, "name": "Ramagundam ", "latitude": 18.7595503, "longitude": 79.4816378}}, {"model": "api.district", "pk": 397, "fields": {"created_at": "2020-05-07T14:49:03.195Z", "updated_at": "2020-05-07T14:49:03.195Z", "state": 9, "name": "Rampur ", "latitude": 25.4842209, "longitude": 82.5916032}}, {"model": "api.district", "pk": 398, "fields": {"created_at": "2020-05-07T14:49:03.228Z", "updated_at": "2020-05-07T14:49:03.228Z", "state": 20, "name": "Ranchi ", "latitude": 23.3440997, "longitude": 85.309562}}, {"model": "api.district", "pk": 399, "fields": {"created_at": "2020-05-07T14:49:03.262Z", "updated_at": "2020-05-07T14:49:03.262Z", "state": 29, "name": "Ranibennur ", "latitude": 14.6113428, "longitude": 75.6382657}}, {"model": "api.district", "pk": 400, "fields": {"created_at": "2020-05-07T14:49:03.295Z", "updated_at": "2020-05-07T14:49:03.295Z", "state": 19, "name": "Raniganj ", "latitude": 23.6290575, "longitude": 87.0923906}}, {"model": "api.district", "pk": 401, "fields": {"created_at": "2020-05-07T14:49:03.351Z", "updated_at": "2020-05-07T14:49:03.351Z", "state": 23, "name": "Ratlam ", "latitude": 23.3341696, "longitude": 75.0376325}}, {"model": "api.district", "pk": 402, "fields": {"created_at": "2020-05-07T14:49:03.406Z", "updated_at": "2020-05-07T14:49:03.406Z", "state": 21, "name": "Raurkela Industrial Township ", "latitude": 22.1993143, "longitude": 84.8620054}}, {"model": "api.district", "pk": 403, "fields": {"created_at": "2020-05-07T14:49:03.440Z", "updated_at": "2020-05-07T14:49:03.440Z", "state": 21, "name": "Raurkela Town ", "latitude": 22.260423, "longitude": 84.8535844}}, {"model": "api.district", "pk": 404, "fields": {"created_at": "2020-05-07T14:49:03.473Z", "updated_at": "2020-05-07T14:49:03.473Z", "state": 23, "name": "Rewa ", "latitude": 24.5372927, "longitude": 81.30418}}, {"model": "api.district", "pk": 405, "fields": {"created_at": "2020-05-07T14:49:03.506Z", "updated_at": "2020-05-07T14:49:03.506Z", "state": 6, "name": "Rewari ", "latitude": 28.1927631, "longitude": 76.6239423}}, {"model": "api.district", "pk": 406, "fields": {"created_at": "2020-05-07T14:49:03.540Z", "updated_at": "2020-05-07T14:49:03.540Z", "state": 19, "name": "Rishra ", "latitude": 22.7244023, "longitude": 88.3287896}}, {"model": "api.district", "pk": 407, "fields": {"created_at": "2020-05-07T14:49:03.573Z", "updated_at": "2020-05-07T14:49:03.573Z", "state": 29, "name": "Robertson Pet ", "latitude": 12.9551189, "longitude": 78.2698622}}, {"model": "api.district", "pk": 408, "fields": {"created_at": "2020-05-07T14:49:03.618Z", "updated_at": "2020-05-07T14:49:03.618Z", "state": 6, "name": "Rohtak ", "latitude": 28.8955152, "longitude": 76.606611}}, {"model": "api.district", "pk": 409, "fields": {"created_at": "2020-05-07T14:49:03.703Z", "updated_at": "2020-05-07T14:49:03.703Z", "state": 5, "name": "Roorkee ", "latitude": 29.8542626, "longitude": 77.8880002}}, {"model": "api.district", "pk": 410, "fields": {"created_at": "2020-05-07T14:49:03.762Z", "updated_at": "2020-05-07T14:49:03.762Z", "state": 5, "name": "Rudrapur ", "latitude": 28.9875082, "longitude": 79.4141214}}, {"model": "api.district", "pk": 411, "fields": {"created_at": "2020-05-07T14:49:03.795Z", "updated_at": "2020-05-07T14:49:03.795Z", "state": 3, "name": "S.A.S. Nagar ", "latitude": 30.6496486, "longitude": 76.7567368}}, {"model": "api.district", "pk": 412, "fields": {"created_at": "2020-05-07T14:49:03.829Z", "updated_at": "2020-05-07T14:49:03.829Z", "state": 23, "name": "Sagar ", "latitude": 23.838805, "longitude": 78.7378068}}, {"model": "api.district", "pk": 413, "fields": {"created_at": "2020-05-07T14:49:03.862Z", "updated_at": "2020-05-07T14:49:03.862Z", "state": 9, "name": "Saharanpur ", "latitude": 29.967079, "longitude": 77.5510172}}, {"model": "api.district", "pk": 414, "fields": {"created_at": "2020-05-07T14:49:03.896Z", "updated_at": "2020-05-07T14:49:03.896Z", "state": 10, "name": "Saharsa ", "latitude": 25.8834961, "longitude": 86.6006249}}, {"model": "api.district", "pk": 415, "fields": {"created_at": "2020-05-07T14:49:03.929Z", "updated_at": "2020-05-07T14:49:03.929Z", "state": 33, "name": "Salem ", "latitude": 11.664325, "longitude": 78.1460142}}, {"model": "api.district", "pk": 416, "fields": {"created_at": "2020-05-07T14:49:03.962Z", "updated_at": "2020-05-07T14:49:03.962Z", "state": 21, "name": "Sambalpur ", "latitude": 21.4668716, "longitude": 83.9811665}}, {"model": "api.district", "pk": 417, "fields": {"created_at": "2020-05-07T14:49:03.996Z", "updated_at": "2020-05-07T14:49:03.996Z", "state": 9, "name": "Sambhal ", "latitude": 28.5903614, "longitude": 78.5717631}}, {"model": "api.district", "pk": 418, "fields": {"created_at": "2020-05-07T14:49:04.041Z", "updated_at": "2020-05-07T14:49:04.041Z", "state": 27, "name": "Sangli Miraj Kupwad ", "latitude": 16.8541887, "longitude": 74.6049061}}, {"model": "api.district", "pk": 419, "fields": {"created_at": "2020-05-07T14:49:04.097Z", "updated_at": "2020-05-07T14:49:04.097Z", "state": 19, "name": "Santipur ", "latitude": 23.2645399, "longitude": 88.4380966}}, {"model": "api.district", "pk": 420, "fields": {"created_at": "2020-05-07T14:49:04.208Z", "updated_at": "2020-05-07T14:49:04.208Z", "state": 10, "name": "Sasaram ", "latitude": 24.949036, "longitude": 84.0314295}}, {"model": "api.district", "pk": 421, "fields": {"created_at": "2020-05-07T14:49:04.319Z", "updated_at": "2020-05-07T14:49:04.319Z", "state": 27, "name": "Satara ", "latitude": 17.6804639, "longitude": 74.018261}}, {"model": "api.district", "pk": 422, "fields": {"created_at": "2020-05-07T14:49:04.375Z", "updated_at": "2020-05-07T14:49:04.375Z", "state": 23, "name": "Satna ", "latitude": 24.6005075, "longitude": 80.8322428}}, {"model": "api.district", "pk": 423, "fields": {"created_at": "2020-05-07T14:49:04.419Z", "updated_at": "2020-05-07T14:49:04.419Z", "state": 8, "name": "Sawai Madhopur ", "latitude": 26.0377772, "longitude": 76.3521514}}, {"model": "api.district", "pk": 424, "fields": {"created_at": "2020-05-07T14:49:04.463Z", "updated_at": "2020-05-07T14:49:04.463Z", "state": 28, "name": "Secunderabad ", "latitude": 17.4399295, "longitude": 78.4982741}}, {"model": "api.district", "pk": 425, "fields": {"created_at": "2020-05-07T14:49:04.508Z", "updated_at": "2020-05-07T14:49:04.508Z", "state": 23, "name": "Sehore ", "latitude": 23.205012, "longitude": 77.0850781}}, {"model": "api.district", "pk": 426, "fields": {"created_at": "2020-05-07T14:49:04.552Z", "updated_at": "2020-05-07T14:49:04.552Z", "state": 23, "name": "Seoni ", "latitude": 22.0868691, "longitude": 79.5434841}}, {"model": "api.district", "pk": 427, "fields": {"created_at": "2020-05-07T14:49:04.597Z", "updated_at": "2020-05-07T14:49:04.597Z", "state": 19, "name": "Serampore ", "latitude": 22.748331, "longitude": 88.3385053}}, {"model": "api.district", "pk": 428, "fields": {"created_at": "2020-05-07T14:49:04.641Z", "updated_at": "2020-05-07T14:49:04.641Z", "state": 9, "name": "Shahjahanpur ", "latitude": 27.8295801, "longitude": 79.8296743}},